[{"prefix":"г.","label":"г. Брест, Брестская обл., Беларусь","label_tail":"Брестская обл., Беларусь","value":"Брест","gid":"17","lon":52.103333333333,"lat":23.715555555556,"exp":"2100200","ecp":"130007","otd":"003"},{"prefix":"ст.","label":"ст. Брест-Центральный, г. Брест, Брестская обл., Беларусь","label_tail":"г. Брест, Брестская обл., Беларусь","value":"Брест-Центральный","gid":"17","lon":52.101111111111,"lat":23.680555555556,"exp":"2100035","ecp":"130007","otd":"003"},{"prefix":"ст.","label":"ст. Брест-Восточный, г. Брест, Брестская обл., Беларусь","label_tail":"г. Брест, Брестская обл., Беларусь","value":"Брест-Восточный","gid":"624","lon":52.110277777778,"lat":23.7275,"exp":"2100188","ecp":"130204","otd":"003"},{"prefix":"ст.","label":"ст. Брест-Полесский, г. Брест, Брестская обл., Беларусь","label_tail":"г. Брест, Брестская обл., Беларусь","value":"Брест-Полесский","gid":"914","lon":52.094722222222,"lat":23.71,"exp":"2100516","ecp":"130308","otd":"003"},{"prefix":"ст.","label":"ст. Брест-Северный, г. Брест, Брестская обл., Беларусь","label_tail":"г. Брест, Брестская обл., Беларусь","value":"Брест-Северный","gid":"623","lon":52.111666666667,"lat":23.654722222222,"exp":"2100670","ecp":"130100","otd":"003"},{"prefix":"ст.","label":"ст. Брест-Южный, г. Брест, Брестская обл., Беларусь","label_tail":"г. Брест, Брестская обл., Беларусь","value":"Брест-Южный","gid":"916","lon":52.064722222222,"lat":23.749444444444,"exp":"2101042","ecp":"130837","otd":"003"},{"prefix":"г.","label":"г. Барановичи, Брестская обл., Беларусь","label_tail":"Брестская обл., Беларусь","value":"Барановичи","gid":"48","lon":26.016666666667,"lat":53.133333333333,"exp":"2100005","ecp":"138901","otd":"001"},{"prefix":"г.","label":"г. Берёза, Брестская обл., Беларусь","label_tail":"Брестская обл., Беларусь","value":"Берёза","gid":"910","lon":24.966666666667,"lat":52.55,"exp":"2100003","ecp":"134116","otd":"003"},{"prefix":"г.","label":"г. Минск, Беларусь","label_tail":"Беларусь","value":"Минск","gid":"0","lon":27.55,"lat":53.916666666667,"exp":"2100000","ecp":"140210","otd":"001"},{"prefix":"г.","label":"г. Бобруйск, Могилёвская обл., Беларусь","label_tail":"Могилёвская обл., Беларусь","value":"Бобруйск","gid":"630","lon":53.148888888889,"lat":29.232777777778,"exp":"2100310","ecp":"147008","otd":"005"},{"prefix":"г.","label":"г. Волковыск, Гродненская обл., Беларусь","label_tail":"Гродненская обл., Беларусь","value":"Волковыск","gid":"25","lon":53.138611111111,"lat":24.413888888889,"exp":"2100276","ecp":"136713","otd":"002"},{"prefix":"г.","label":"г. Гомель, Гомельская обл., Беларусь","label_tail":"Гомельская обл., Беларусь","value":"Гомель","gid":"634","lon":52.430555555556,"lat":30.990833333333,"exp":"2100100","ecp":"150000","otd":"004"},{"prefix":"г.","label":"г. Жлобин, Гомельская обл., Беларусь","label_tail":"Гомельская обл., Беларусь","value":"Жлобин","gid":"46","lon":52.889722222222,"lat":30.036666666667,"exp":"2100080","ecp":"155004","otd":"004"},{"prefix":"г.","label":"г. Калинковичи, Гомельская обл., Беларусь","label_tail":"Гомельская обл., Беларусь","value":"Калинковичи","gid":"3","lon":52.139166666667,"lat":29.313333333333,"exp":"2100090","ecp":"153808","otd":"004"},{"prefix":"г.","label":"г. Могилёв, Могилёвская обл., Беларусь","label_tail":"Могилёвская обл., Беларусь","value":"Могилёв","gid":"745","lon":53.926111111111,"lat":30.337777777778,"exp":"2100150","ecp":"156609","otd":"005"},{"prefix":"г.","label":"г. Орша, Витебская обл., Беларусь","label_tail":"Витебская обл., Беларусь","value":"Орша","gid":"43","lon":54.521388888889,"lat":30.376388888889,"exp":"2100170","ecp":"166403","otd":"001"},{"prefix":"г.","label":"г. Осиповичи, Могилёвская обл., Беларусь","label_tail":"Могилёвская обл., Беларусь","value":"Осиповичи","gid":"35","lon":53.299166666667,"lat":28.646666666667,"exp":"2100270","ecp":"146407","otd":"005"},{"prefix":"ст.","label":"ст. Барановичи-Полесские, г. Барановичи, Брестская обл., Беларусь","label_tail":"г. Барановичи, Брестская обл., Беларусь","value":"Барановичи-Полесские","gid":"616","lon":53.128888888889,"lat":26.041944444444,"exp":"2100010","ecp":"138901","otd":"002"},{"prefix":"ст.","label":"ст. Бобруйск, г. Бобруйск, Могилёвская обл., Беларусь","label_tail":"г. Бобруйск, Могилёвская обл., Беларусь","value":"Бобруйск","gid":"630","lon":53.1375,"lat":29.195,"exp":"2100113","ecp":"147008","otd":"005"},{"prefix":"ст.","label":"ст. Гомель-Пассажирский, г. Гомель, Гомельская обл., Беларусь","label_tail":"г. Гомель, Гомельская обл., Беларусь","value":"Гомель-Пассажирский","gid":"634","lon":52.430555555556,"lat":30.990833333333,"exp":"2100100","ecp":"150000","otd":"004"},{"prefix":"ст.","label":"ст. Жлобин-Пассажирский, г. Жлобин, Гомельская обл., Беларусь","label_tail":"г. Жлобин, Гомельская обл., Беларусь","value":"Жлобин-Пассажирский","gid":"46","lon":52.889722222222,"lat":30.036666666667,"exp":"2100080","ecp":"155004","otd":"004"},{"prefix":"ст.","label":"ст. Минск-Пассажирский, г. Минск, Минская обл., Беларусь","label_tail":"г. Минск, Минская обл., Беларусь","value":"Минск-Пассажирский","gid":"53","lon":53.890277777778,"lat":27.550555555556,"exp":"2100001","ecp":"140210","otd":"001"},{"prefix":"ст.","label":"ст. Гродно, г. Гродно, Гродненская обл., Беларусь","label_tail":"г. Гродно, Гродненская обл., Беларусь","value":"Гродно","gid":"628","lon":53.685833333333,"lat":23.848888888889,"exp":"2100070","ecp":"135208","otd":"002"},{"prefix":"ст.","label":"ст. Могилёв-1, г. Могилёв, Могилёвская обл., Беларусь","label_tail":"г. Могилёв, Могилёвская обл., Беларусь","value":"Могилёв-1","gid":"745","lon":53.926111111111,"lat":30.337777777778,"exp":"2100150","ecp":"156609","otd":"005"},{"prefix":"ст.","label":"ст. Могилёв-2, г. Могилёв, Могилёвская обл., Беларусь","label_tail":"г. Могилёв, Могилёвская обл., Беларусь","value":"Могилёв-2","gid":"744","lon":53.912222222222,"lat":30.3075,"exp":"2100298","ecp":"156505","otd":"005"},{"prefix":"ст.","label":"ст. Могилёв-3, г. Могилёв, Могилёвская обл., Беларусь","label_tail":"г. Могилёв, Могилёвская обл., Беларусь","value":"Могилёв-3","gid":"735","lon":53.919722222222,"lat":30.355277777778,"exp":"2100819","ecp":"156613","otd":"005"},{"prefix":"ст.","label":"ст. Молодечно, г. Молодечно, Минская обл., Беларусь","label_tail":"г. Молодечно, Минская обл., Беларусь","value":"Молодечно","gid":"255","lon":54.316111111111,"lat":26.838888888889,"exp":"2100280","ecp":"162900","otd":"001"},{"prefix":"ст.","label":"ст. Орша-Центральная, г. Орша, Витебская обл., Беларусь","label_tail":"г. Орша, Витебская обл., Беларусь","value":"Орша-Центральная","gid":"43","lon":54.521388888889,"lat":30.376388888889,"exp":"2100170","ecp":"166403","otd":"001"},{"prefix":"ст.","label":"ст. Каледино, г. Молодечно, Минская обл., Беларусь","label_tail":"г. Молодечно, Минская обл., Беларусь","value":"Каледино","gid":"256","lon":54.299166666667,"lat":26.810555555556,"exp":"2100724","ecp":"162807","otd":"001"},{"prefix":"о.п.","label":"о.п. Фестивальный, г. Молодечно, Минская обл., Беларусь","label_tail":"г. Молодечно, Минская обл., Беларусь","value":"Фестивальный","gid":"779","lon":54.301388888889,"lat":26.883055555556,"exp":"2100434","ecp":"142377","otd":"001"},{"prefix":"о.п.","label":"о.п. 11км, Витебская обл., Беларусь","label_tail":"Витебская обл., Беларусь","value":"11км","gid":"710","lon":54.575555555556,"lat":30.27,"exp":"2100858","ecp":"168767","otd":"001"},{"prefix":"о.п.","label":"о.п. 15км, Гомельская обл., Беларусь","label_tail":"Гомельская обл., Беларусь","value":"15км","gid":"594","lon":52.274166666667,"lat":31.081388888889,"exp":"2100889","ecp":"150299","otd":"004"},{"prefix":"о.п.","label":"о.п. 331км, Могилёвская обл., Беларусь","label_tail":"Могилёвская обл., Беларусь","value":"331км","gid":"516","lon":53.068888888889,"lat":29.405277777778,"exp":"2100855","ecp":"147741","otd":"005"},{"prefix":"о.п.","label":"о.п. Авраамовская, Гомельская обл., Беларусь","label_tail":"Гомельская обл., Беларусь","value":"Авраамовская","gid":"951","lon":52.051666666667,"lat":29.995,"exp":"2100594","ecp":"154529","otd":"004"},{"prefix":"ст.","label":"ст. Адамово, Витебская обл., Беларусь","label_tail":"Витебская обл., Беларусь","value":"Адамово","gid":"141","lon":55.621111111111,"lat":28.469166666667,"exp":"2100480","ecp":"162012","otd":"006"},{"prefix":"о.п.","label":"о.п. Адровка, Витебская обл., Беларусь","label_tail":"Витебская обл., Беларусь","value":"Адровка","gid":"706","lon":54.636111111111,"lat":30.05,"exp":"2100261","ecp":"168663","otd":"001"},{"prefix":"о.п.","label":"о.п. Александрия, Могилёвская обл., Беларусь","label_tail":"Могилёвская обл., Беларусь","value":"Александрия","gid":"804","lon":54.3425,"lat":30.277777777778,"exp":"2100409","ecp":"156929","otd":"005"},{"prefix":"о.п.","label":"о.п. Александровка, Минская обл., Беларусь","label_tail":"Минская обл., Беларусь","value":"Александровка","gid":"508","lon":53.080277777778,"lat":28.291666666667,"exp":"2100784","ecp":"149111","otd":"005"},{"prefix":"о.п.","label":"о.п. Алёнушка, Брестская обл., Беларусь","label_tail":"Брестская обл., Беларусь","value":"Алёнушка","gid":"937","lon":52.188888888889,"lat":26.289166666667,"exp":"2100651","ecp":"133310","otd":"003"},{"prefix":"ст.","label":"ст. Алеща, Витебская обл., Беларусь","label_tail":"Витебская обл., Беларусь","value":"Алеща","gid":"134","lon":55.734166666667,"lat":29.328611111111,"exp":"2100234","ecp":"161607","otd":"006"},{"prefix":"ст.","label":"ст. Андреевичи, Гродненская обл., Беларусь","label_tail":"Гродненская обл., Беларусь","value":"Андреевичи","gid":"765","lon":53.111388888889,"lat":24.3,"exp":"2100667","ecp":"136249","otd":"002"},{"prefix":"о.п.","label":"о.п. Антоновка, Могилёвская обл., Беларусь","label_tail":"Могилёвская обл., Беларусь","value":"Антоновка","gid":"737","lon":53.840555555556,"lat":30.606944444444,"exp":"2100575","ecp":"157724","otd":"005"},{"prefix":"о.п.","label":"о.п. Антополь, Гомельская обл., Беларусь","label_tail":"Гомельская обл., Беларусь","value":"Антополь","gid":"403","lon":52.336111111111,"lat":30.2275,"exp":"2101004","ecp":"154726","otd":"004"},{"prefix":"о.п.","label":"о.п. Антополь, Брестская обл., Беларусь","label_tail":"Брестская обл., Беларусь","value":"Антополь","gid":"649","lon":52.189444444444,"lat":24.780277777778,"exp":"2100561","ecp":"132816","otd":"003"},{"prefix":"о.п.","label":"о.п. Анусино, Минская обл., Беларусь","label_tail":"Минская обл., Беларусь","value":"Анусино","gid":"272","lon":54.049166666667,"lat":27.224444444444,"exp":"2100765","ecp":"143524","otd":"001"},{"prefix":"о.п.","label":"о.п. Апалоновка, Могилёвская обл., Беларусь","label_tail":"Могилёвская обл., Беларусь","value":"Апалоновка","gid":"806","lon":54.184722222222,"lat":30.290833333333,"exp":"2100857","ecp":"156825","otd":"005"},{"prefix":"о.п.","label":"о.п. Асановский, Минская обл., Беларусь","label_tail":"Минская обл., Беларусь","value":"Асановский","gid":"253","lon":54.331666666667,"lat":26.730277777778,"exp":"2100866","ecp":"163528","otd":"001"},{"prefix":"п.п.","label":"п.п. Асеевка, Минская обл., Беларусь","label_tail":"Минская обл., Беларусь","value":"Асеевка","gid":"58","lon":53.768611111111,"lat":27.653333333333,"exp":"2100319","ecp":"144832","otd":"001"},{"prefix":"о.п.","label":"о.п. Асино, Минская обл., Беларусь","label_tail":"Минская обл., Беларусь","value":"Асино","gid":"422","lon":53.5575,"lat":26.993888888889,"exp":"2101011","ecp":"144438","otd":"002"},{"prefix":"ст.","label":"ст. Аульс, г. Гродно, Гродненская обл., Беларусь","label_tail":"г. Гродно, Гродненская обл., Беларусь","value":"Аульс","gid":"620","lon":53.674166666667,"lat":23.96,"exp":"2100545","ecp":"135301","otd":"002"},{"prefix":"о.п.","label":"о.п. Бабино, Могилёвская обл., Беларусь","label_tail":"Могилёвская обл., Беларусь","value":"Бабино","gid":"514","lon":53.1175,"lat":29.320833333333,"exp":"2100330","ecp":"147718","otd":"005"},{"prefix":"ст.","label":"ст. Бабичи, Гомельская обл., Беларусь","label_tail":"Гомельская обл., Беларусь","value":"Бабичи","gid":"586","lon":52.291111111111,"lat":30.000555555556,"exp":"2100202","ecp":"154425","otd":"004"},{"prefix":"ст.","label":"ст. Баравуха, Витебская обл., Беларусь","label_tail":"Витебская обл., Беларусь","value":"Баравуха","gid":"144","lon":55.584444444444,"lat":28.596111111111,"exp":"2100032","ecp":"162116","otd":"006"},{"prefix":"ст.","label":"ст. Барановичи-Северные, г. Барановичи, Брестская обл., Беларусь","label_tail":"г. Барановичи, Брестская обл., Беларусь","value":"Барановичи-Северные","gid":"49","lon":53.153888888889,"lat":26.015277777778,"exp":"2100241","ecp":"138437","otd":"002"},{"prefix":"ст.","label":"ст. Барановичи-Центральные, г. Барановичи, Брестская обл., Беларусь","label_tail":"г. Барановичи, Брестская обл., Беларусь","value":"Барановичи-Центральные","gid":"48","lon":53.131944444444,"lat":25.993888888889,"exp":"2100020","ecp":"138507","otd":"002"},{"prefix":"о.п.","label":"о.п. Баркалабово, Могилёвская обл., Беларусь","label_tail":"Могилёвская обл., Беларусь","value":"Баркалабово","gid":"368","lon":53.595,"lat":30.238888888889,"exp":"2100266","ecp":"156127","otd":"005"},{"prefix":"о.п.","label":"о.п. Барсуки, Минская обл., Беларусь","label_tail":"Минская обл., Беларусь","value":"Барсуки","gid":"278","lon":54.065555555556,"lat":28.280277777778,"exp":"2101014","ecp":"141336","otd":"001"},{"prefix":"ст.","label":"ст. Барсуки, Могилёвская обл., Беларусь","label_tail":"Могилёвская обл., Беларусь","value":"Барсуки","gid":"366","lon":53.661944444444,"lat":30.260833333333,"exp":"2100267","ecp":"156134","otd":"005"},{"prefix":"ст.","label":"ст. Бастуны, Гродненская обл., Беларусь","label_tail":"Гродненская обл., Беларусь","value":"Бастуны","gid":"240","lon":54.0775,"lat":25.293333333333,"exp":"2100163","ecp":"137805","otd":"002"},{"prefix":"о.п.","label":"о.п. Батали, Витебская обл., Беларусь","label_tail":"Витебская обл., Беларусь","value":"Батали","gid":"696","lon":55.388611111111,"lat":30.083333333333,"exp":"2100872","ecp":"160341","otd":"006"},{"prefix":"о.п.","label":"о.п. Батча, Брестская обл., Беларусь","label_tail":"Брестская обл., Беларусь","value":"Батча","gid":"646","lon":52.217777777778,"lat":24.170277777778,"exp":"2100576","ecp":"131283","otd":"003"},{"prefix":"о.п.","label":"о.п. Безверховичи, Минская обл., Беларусь","label_tail":"Минская обл., Беларусь","value":"Безверховичи","gid":"890","lon":53.028888888889,"lat":27.435277777778,"exp":"2100830","ecp":"148655","otd":"002"},{"prefix":"ст.","label":"ст. Беларусь, г. Заславль, Минская обл., Беларусь","label_tail":"г. Заславль, Минская обл., Беларусь","value":"Беларусь","gid":"47","lon":54.008611111111,"lat":27.283888888889,"exp":"2100106","ecp":"143609","otd":"001"},{"prefix":"о.п.","label":"о.п. Белогруда, Гродненская обл., Беларусь","label_tail":"Гродненская обл., Беларусь","value":"Белогруда","gid":"313","lon":53.786666666667,"lat":25.178333333333,"exp":"2100739","ecp":"137542","otd":"002"},{"prefix":"ст.","label":"ст. Белоозерск, г. Белоозерск, Брестская обл., Беларусь","label_tail":"г. Белоозерск, Брестская обл., Беларусь","value":"Белоозерск","gid":"21","lon":52.466666666667,"lat":25.186944444444,"exp":"2101065","ecp":"133804","otd":"003"},{"prefix":"о.п.","label":"о.п. Белосельский, Гродненская обл., Беларусь","label_tail":"Гродненская обл., Беларусь","value":"Белосельский","gid":"219","lon":54.456666666667,"lat":26.456111111111,"exp":"2100869","ecp":"163316","otd":"001"},{"prefix":"ст.","label":"ст. Белынковичи, Могилёвская обл., Беларусь","label_tail":"Могилёвская обл., Беларусь","value":"Белынковичи","gid":"382","lon":53.233055555556,"lat":32.161388888889,"exp":"2100093","ecp":"159005","otd":"005"},{"prefix":"о.п.","label":"о.п. Бель, Могилёвская обл., Беларусь","label_tail":"Могилёвская обл., Беларусь","value":"Бель","gid":"364","lon":53.802777777778,"lat":31.660277777778,"exp":"2100316","ecp":"158233","otd":"005"},{"prefix":"о.п.","label":"о.п. Бениславского, Витебская обл., Беларусь","label_tail":"Витебская обл., Беларусь","value":"Бениславского","gid":"132","lon":55.714722222222,"lat":28.215,"exp":"2100268","ecp":"161823","otd":"006"},{"prefix":"ст.","label":"ст. Беняконе, Гродненская обл., Беларусь","label_tail":"Гродненская обл., Беларусь","value":"Беняконе","gid":"241","lon":54.244444444444,"lat":25.352777777778,"exp":"2100232","ecp":"137909","otd":"002"},{"prefix":"о.п.","label":"о.п. Бережа, Минская обл., Беларусь","label_tail":"Минская обл., Беларусь","value":"Бережа","gid":"325","lon":53.716111111111,"lat":27.270833333333,"exp":"2101053","ecp":"144527","otd":"001"},{"prefix":"о.п.","label":"о.п. Бережок, Минская обл., Беларусь","label_tail":"Минская обл., Беларусь","value":"Бережок","gid":"290","lon":54.296944444444,"lat":28.931388888889,"exp":"2100456","ecp":"141618","otd":"001"},{"prefix":"о.п.","label":"о.п. Берёза-Город, г. Берёза, Брестская обл., Беларусь","label_tail":"г. Берёза, Брестская обл., Беларусь","value":"Берёза-Город","gid":"910","lon":52.5475,"lat":24.970277777778,"exp":"2100794","ecp":"134116","otd":"003"},{"prefix":"ст.","label":"ст. Берёза-Картузская, г. Береза, Брестская обл., Беларусь","label_tail":"г. Береза, Брестская обл., Беларусь","value":"Берёза-Картузская","gid":"946","lon":52.533333333333,"lat":24.899444444444,"exp":"2100030","ecp":"133700","otd":"003"},{"prefix":"ст.","label":"ст. Березина, г. Бобруйск, Могилёвская обл., Беларусь","label_tail":"г. Бобруйск, Могилёвская обл., Беларусь","value":"Березина","gid":"629","lon":53.130555555556,"lat":29.249444444444,"exp":"2100040","ecp":"147703","otd":"005"},{"prefix":"о.п.","label":"о.п. Березина, г. Борисов, Минская обл., Беларусь","label_tail":"г. Борисов, Минская обл., Беларусь","value":"Березина","gid":"291","lon":54.241111111111,"lat":28.552777777778,"exp":"2100687","ecp":"141410","otd":"001"},{"prefix":"о.п.","label":"о.п. Березинское, Минская обл., Беларусь","label_tail":"Минская обл., Беларусь","value":"Березинское","gid":"262","lon":54.217777777778,"lat":26.614444444444,"exp":"2100726","ecp":"162633","otd":"001"},{"prefix":"ст.","label":"ст. Берёзки, Гомельская обл., Беларусь","label_tail":"Гомельская обл., Беларусь","value":"Берёзки","gid":"580","lon":52.391388888889,"lat":31.100555555556,"exp":"2100571","ecp":"150212","otd":"004"},{"prefix":"о.п.","label":"о.п. Берёзовая роща, Брестская обл., Беларусь","label_tail":"Брестская обл., Беларусь","value":"Берёзовая роща","gid":"123","lon":52.045277777778,"lat":23.775833333333,"exp":"2101044","ecp":"130825","otd":"003"},{"prefix":"о.п.","label":"о.п. Берёзовцы, Гродненская обл., Беларусь","label_tail":"Гродненская обл., Беларусь","value":"Берёзовцы","gid":"245","lon":54.000277777778,"lat":25.713888888889,"exp":"2100736","ecp":"162313","otd":"002"},{"prefix":"ст.","label":"ст. Берестовица, Гродненская обл., Беларусь","label_tail":"Гродненская обл., Беларусь","value":"Берестовица","gid":"24","lon":53.115833333333,"lat":23.968333333333,"exp":"2100155","ecp":"136200","otd":"002"},{"prefix":"о.п.","label":"о.п. Бибковщина, Могилёвская обл., Беларусь","label_tail":"Могилёвская обл., Беларусь","value":"Бибковщина","gid":"512","lon":53.183055555556,"lat":29.035555555556,"exp":"2100577","ecp":"146823","otd":"005"},{"prefix":"ст.","label":"ст. Бигосово, Витебская обл., Беларусь","label_tail":"Витебская обл., Беларусь","value":"Бигосово","gid":"128","lon":55.834444444444,"lat":27.7375,"exp":"2100031","ecp":"161700","otd":"006"},{"prefix":"о.п.","label":"о.п. Бирюличи, Гродненская обл., Беларусь","label_tail":"Гродненская обл., Беларусь","value":"Бирюличи","gid":"350","lon":53.5875,"lat":24.160833333333,"exp":"2100748","ecp":"135349","otd":"002"},{"prefix":"о.п.","label":"о.п. Благовичи, Могилёвская обл., Беларусь","label_tail":"Могилёвская обл., Беларусь","value":"Благовичи","gid":"740","lon":53.794722222222,"lat":30.839444444444,"exp":"2100578","ecp":"157921","otd":"005"},{"prefix":"о.п.","label":"о.п. Блажевщина, Витебская обл., Беларусь","label_tail":"Витебская обл., Беларусь","value":"Блажевщина","gid":"203","lon":54.738888888889,"lat":29.443055555556,"exp":"2100110","ecp":"168339","otd":"001"},{"prefix":"о.п.","label":"о.п. Блужа, Минская обл., Беларусь","label_tail":"Минская обл., Беларусь","value":"Блужа","gid":"443","lon":53.4375,"lat":28.226944444444,"exp":"2100579","ecp":"145426","otd":"001"},{"prefix":"ст.","label":"ст. Бобр, Минская обл., Беларусь","label_tail":"Минская обл., Беларусь","value":"Бобр","gid":"294","lon":54.319722222222,"lat":29.261111111111,"exp":"2100012","ecp":"141800","otd":"001"},{"prefix":"о.п.","label":"о.п. Бобрич, Гомельская обл., Беларусь","label_tail":"Гомельская обл., Беларусь","value":"Бобрич","gid":"677","lon":52.209444444444,"lat":28.430833333333,"exp":"2100650","ecp":"153526","otd":"004"},{"prefix":"о.п.","label":"о.п. Бобры, Брестская обл., Беларусь","label_tail":"Брестская обл., Беларусь","value":"Бобры","gid":"644","lon":52.2175,"lat":24.092777777778,"exp":"2100831","ecp":"131298","otd":"003"},{"prefix":"о.п.","label":"о.п. Бобры, Гродненская обл., Беларусь","label_tail":"Гродненская обл., Беларусь","value":"Бобры","gid":"413","lon":53.531111111111,"lat":24.741944444444,"exp":"2100744","ecp":"137256","otd":"002"},{"prefix":"ст.","label":"ст. Богданов, Минская обл., Беларусь","label_tail":"Минская обл., Беларусь","value":"Богданов","gid":"248","lon":54.171111111111,"lat":26.153888888889,"exp":"2100058","ecp":"162506","otd":"001"},{"prefix":"о.п.","label":"о.п. Богутичи, Гомельская обл., Беларусь","label_tail":"Гомельская обл., Беларусь","value":"Богутичи","gid":"862","lon":51.760833333333,"lat":29.126388888889,"exp":"2100258","ecp":"151234","otd":"004"},{"prefix":"о.п.","label":"о.п. Богушевка, Гродненская обл., Беларусь","label_tail":"Гродненская обл., Беларусь","value":"Богушевка","gid":"107","lon":53.760833333333,"lat":23.960555555556,"exp":"2100547","ecp":"135227","otd":"002"},{"prefix":"ст.","label":"ст. Богушевская, Витебская обл., Беларусь","label_tail":"Витебская обл., Беларусь","value":"Богушевская","gid":"40","lon":54.8425,"lat":30.206944444444,"exp":"2100015","ecp":"167001","otd":"006"},{"prefix":"о.п.","label":"о.п. Бокуны, Гродненская обл., Беларусь","label_tail":"Гродненская обл., Беларусь","value":"Бокуны","gid":"771","lon":53.564166666667,"lat":23.7225,"exp":"2100895","ecp":"135250","otd":"002"},{"prefix":"о.п.","label":"о.п. Больница, г. Жлобин, Гомельская обл., Беларусь","label_tail":"г. Жлобин, Гомельская обл., Беларусь","value":"Больница","gid":"387","lon":52.904722222222,"lat":30.003055555556,"exp":"2100806","ecp":"155856","otd":"004"},{"prefix":"о.п.","label":"о.п. Бони, Могилёвская обл., Беларусь","label_tail":"Могилёвская обл., Беларусь","value":"Бони","gid":"383","lon":53.200555555556,"lat":32.209722222222,"exp":"2100843","ecp":"159043","otd":"005"},{"prefix":"ст.","label":"ст. Борисов, г. Борисов, Минская обл., Беларусь","label_tail":"г. Борисов, Минская обл., Беларусь","value":"Борисов","gid":"289","lon":54.22,"lat":28.530833333333,"exp":"2100305","ecp":"141406","otd":"001"},{"prefix":"о.п.","label":"о.п. Борки, Брестская обл., Беларусь","label_tail":"Брестская обл., Беларусь","value":"Борки","gid":"521","lon":52.778055555556,"lat":25.410277777778,"exp":"2100885","ecp":"134224","otd":"003"},{"prefix":"ст.","label":"ст. Борковичи, Витебская обл., Беларусь","label_tail":"Витебская обл., Беларусь","value":"Борковичи","gid":"131","lon":55.670555555556,"lat":28.324444444444,"exp":"2100233","ecp":"161908","otd":"006"},{"prefix":"о.п.","label":"о.п. Боровая, Брестская обл., Беларусь","label_tail":"Брестская обл., Беларусь","value":"Боровая","gid":"79","lon":51.956388888889,"lat":23.897222222222,"exp":"2101049","ecp":"132534","otd":"003"},{"prefix":"о.п.","label":"о.п. Боровка, г. Могилёв, Могилёвская обл., Беларусь","label_tail":"г. Могилёв, Могилёвская обл., Беларусь","value":"Боровка","gid":"732","lon":53.867222222222,"lat":30.443888888889,"exp":"2100820","ecp":"157739","otd":"005"},{"prefix":"ст.","label":"ст. Боровое, Витебская обл., Беларусь","label_tail":"Витебская обл., Беларусь","value":"Боровое","gid":"182","lon":55.214444444444,"lat":28.079444444444,"exp":"2100247","ecp":"165103","otd":"006"},{"prefix":"ст.","label":"ст. Боровцы, Брестская обл., Беларусь","label_tail":"Брестская обл., Беларусь","value":"Боровцы","gid":"618","lon":53.106666666667,"lat":25.938333333333,"exp":"2100539","ecp":"137129","otd":"002"},{"prefix":"о.п.","label":"о.п. Борок, Гомельская обл., Беларусь","label_tail":"Гомельская обл., Беларусь","value":"Борок","gid":"600","lon":52.273055555556,"lat":31.320833333333,"exp":"2100211","ecp":"150636","otd":"004"},{"prefix":"о.п.","label":"о.п. Борречье, Гомельская обл., Беларусь","label_tail":"Гомельская обл., Беларусь","value":"Борречье","gid":"680","lon":52.190555555556,"lat":28.729444444444,"exp":"2100815","ecp":"153776","otd":"004"},{"prefix":"о.п.","label":"о.п. Бостынь, Брестская обл., Беларусь","label_tail":"Брестская обл., Беларусь","value":"Бостынь","gid":"638","lon":52.393611111111,"lat":26.760833333333,"exp":"2100683","ecp":"139478","otd":"002"},{"prefix":"о.п.","label":"о.п. Бояры, Минская обл., Беларусь","label_tail":"Минская обл., Беларусь","value":"Бояры","gid":"267","lon":54.191388888889,"lat":27.084166666667,"exp":"2100581","ecp":"142324","otd":"001"},{"prefix":"ст.","label":"ст. Бринево, Гомельская обл., Беларусь","label_tail":"Гомельская обл., Беларусь","value":"Бринево","gid":"877","lon":52.250833333333,"lat":27.995,"exp":"2101035","ecp":"153314","otd":"004"},{"prefix":"о.п.","label":"о.п. Брицаловичи, Могилёвская обл., Беларусь","label_tail":"Могилёвская обл., Беларусь","value":"Брицаловичи","gid":"453","lon":53.353055555556,"lat":28.844444444444,"exp":"2100072","ecp":"146429","otd":"005"},{"prefix":"о.п.","label":"о.п. Бродище, Могилёвская обл., Беларусь","label_tail":"Могилёвская обл., Беларусь","value":"Бродище","gid":"511","lon":53.269166666667,"lat":28.775555555556,"exp":"2100329","ecp":"146452","otd":"005"},{"prefix":"ст.","label":"ст. Брожа, Могилёвская обл., Беларусь","label_tail":"Могилёвская обл., Беларусь","value":"Брожа","gid":"926","lon":52.951666666667,"lat":29.112777777778,"exp":"2100121","ecp":"147506","otd":"005"},{"prefix":"о.п.","label":"о.п. Бронислав, Гомельская обл., Беларусь","label_tail":"Гомельская обл., Беларусь","value":"Бронислав","gid":"674","lon":52.227777777778,"lat":27.605555555556,"exp":"2100684","ecp":"152129","otd":"002"},{"prefix":"ст.","label":"ст. Бронная Гора, Брестская обл., Беларусь","label_tail":"Брестская обл., Беларусь","value":"Бронная Гора","gid":"908","lon":52.605833333333,"lat":25.09,"exp":"2100189","ecp":"134008","otd":"003"},{"prefix":"ст.","label":"ст. Брузги, Гродненская обл., Беларусь","label_tail":"Гродненская обл., Беларусь","value":"Брузги","gid":"773","lon":53.555555555556,"lat":23.666388888889,"exp":"2100897","ecp":"135104","otd":"002"},{"prefix":"ст.","label":"ст. Буда-Кошелевская, г. Буда-Кошелёво, Гомельская обл., Беларусь","label_tail":"г. Буда-Кошелёво, Гомельская обл., Беларусь","value":"Буда-Кошелевская","gid":"400","lon":52.712777777778,"lat":30.5675,"exp":"2100025","ecp":"155201","otd":"004"},{"prefix":"о.п.","label":"о.п. Будотень, Гомельская обл., Беларусь","label_tail":"Гомельская обл., Беларусь","value":"Будотень","gid":"576","lon":52.438611111111,"lat":31.0875,"exp":"2100818","ecp":"150551","otd":"004"},{"prefix":"ст.","label":"ст. Будслав, Минская обл., Беларусь","label_tail":"Минская обл., Беларусь","value":"Будслав","gid":"194","lon":54.791111111111,"lat":27.406944444444,"exp":"2100027","ecp":"163802","otd":"001"},{"prefix":"о.п.","label":"о.п. Буды, Брестская обл., Беларусь","label_tail":"Брестская обл., Беларусь","value":"Буды","gid":"525","lon":52.867222222222,"lat":26.3625,"exp":"2100144","ecp":"139618","otd":"002"},{"prefix":"ст.","label":"ст. Буйничи, Могилёвская обл., Беларусь","label_tail":"Могилёвская обл., Беларусь","value":"Буйничи","gid":"743","lon":53.868333333333,"lat":30.248611111111,"exp":"2100269","ecp":"156401","otd":"005"},{"prefix":"о.п.","label":"о.п. Бумажково, Гомельская обл., Беларусь","label_tail":"Гомельская обл., Беларусь","value":"Бумажково","gid":"929","lon":52.705555555556,"lat":28.895833333333,"exp":"2100582","ecp":"147328","otd":"005"},{"prefix":"ст.","label":"ст. Бурбин, Витебская обл., Беларусь","label_tail":"Витебская обл., Беларусь","value":"Бурбин","gid":"213","lon":54.712777777778,"lat":29.65,"exp":"2100669","ecp":"168606","otd":"001"},{"prefix":"о.п.","label":"о.п. Буслы, Гомельская обл., Беларусь","label_tail":"Гомельская обл., Беларусь","value":"Буслы","gid":"407","lon":52.641388888889,"lat":30.721111111111,"exp":"2100583","ecp":"155240","otd":"004"},{"prefix":"о.п.","label":"о.п. Бухличи, Брестская обл., Беларусь","label_tail":"Брестская обл., Беларусь","value":"Бухличи","gid":"101","lon":51.800555555556,"lat":26.781388888889,"exp":"2101314","ecp":"139228","otd":"002"},{"prefix":"о.п.","label":"о.п. Бушевка, Гомельская обл., Беларусь","label_tail":"Гомельская обл., Беларусь","value":"Бушевка","gid":"399","lon":52.690555555556,"lat":30.615555555556,"exp":"2100338","ecp":"155216","otd":"004"},{"prefix":"о.п.","label":"о.п. Бытень, Брестская обл., Беларусь","label_tail":"Брестская обл., Беларусь","value":"Бытень","gid":"522","lon":52.876666666667,"lat":25.617222222222,"exp":"2100584","ecp":"134313","otd":"003"},{"prefix":"ст.","label":"ст. Быхов, Могилёвская обл., Беларусь","label_tail":"Могилёвская обл., Беларусь","value":"Быхов","gid":"370","lon":53.515277777778,"lat":30.230555555556,"exp":"2100060","ecp":"156100","otd":"005"},{"prefix":"ст.","label":"ст. Бычиха, Витебская обл., Беларусь","label_tail":"Витебская обл., Беларусь","value":"Бычиха","gid":"761","lon":55.676388888889,"lat":29.977777777778,"exp":"2100238","ecp":"166210","otd":"006"},{"prefix":"о.п.","label":"о.п. Ванилевичи, Минская обл., Беларусь","label_tail":"Минская обл., Беларусь","value":"Ванилевичи","gid":"505","lon":53.082777777778,"lat":27.148333333333,"exp":"2100828","ecp":"139143","otd":"002"},{"prefix":"ст.","label":"ст. Василевичи, г. Василевичи, Гомельская обл., Беларусь","label_tail":"г. Василевичи, Гомельская обл., Беларусь","value":"Василевичи","gid":"855","lon":52.255,"lat":29.828055555556,"exp":"2100245","ecp":"154406","otd":"004"},{"prefix":"о.п.","label":"о.п. Васьковщизна, Витебская обл., Беларусь","label_tail":"Витебская обл., Беларусь","value":"Васьковщизна","gid":"714","lon":54.528333333333,"lat":30.344444444444,"exp":"2100668","ecp":"168752","otd":"001"},{"prefix":"о.п.","label":"о.п. Ведрич, Гомельская обл., Беларусь","label_tail":"Гомельская обл., Беларусь","value":"Ведрич","gid":"695","lon":52.251388888889,"lat":29.923333333333,"exp":"2100273","ecp":"154410","otd":"004"},{"prefix":"о.п.","label":"о.п. Веленский, Минская обл., Беларусь","label_tail":"Минская обл., Беларусь","value":"Веленский","gid":"442","lon":53.462777777778,"lat":28.183055555556,"exp":"2100326","ecp":"145411","otd":"001"},{"prefix":"о.п.","label":"о.п. Вендеж, Минская обл., Беларусь","label_tail":"Минская обл., Беларусь","value":"Вендеж","gid":"440","lon":53.547222222222,"lat":28.065,"exp":"2100324","ecp":"145337","otd":"001"},{"prefix":"ст.","label":"ст. Вендриж, Могилёвская обл., Беларусь","label_tail":"Могилёвская обл., Беларусь","value":"Вендриж","gid":"826","lon":53.803611111111,"lat":30.037222222222,"exp":"2100081","ecp":"157423","otd":"005"},{"prefix":"о.п.","label":"о.п. Верасы, Брестская обл., Беларусь","label_tail":"Брестская обл., Беларусь","value":"Верасы","gid":"118","lon":52.001666666667,"lat":23.712777777778,"exp":"2100824","ecp":"130399","otd":"003"},{"prefix":"о.п.","label":"о.п. Верба, Брестская обл., Беларусь","label_tail":"Брестская обл., Беларусь","value":"Верба","gid":"112","lon":52.317777777778,"lat":23.425833333333,"exp":"2100713","ecp":"131724","otd":"003"},{"prefix":"ст.","label":"ст. Верейцы, Могилёвская обл., Беларусь","label_tail":"Могилёвская обл., Беларусь","value":"Верейцы","gid":"837","lon":53.338888888889,"lat":28.518888888889,"exp":"2100274","ecp":"146109","otd":"005"},{"prefix":"ст.","label":"ст. Веремейки, Могилёвская обл., Беларусь","label_tail":"Могилёвская обл., Беларусь","value":"Веремейки","gid":"822","lon":53.762222222222,"lat":31.280833333333,"exp":"2100065","ecp":"158106","otd":"005"},{"prefix":"о.п.","label":"о.п. Вереньки, Витебская обл., Беларусь","label_tail":"Витебская обл., Беларусь","value":"Вереньки","gid":"200","lon":54.84,"lat":27.510833333333,"exp":"2100647","ecp":"163814","otd":"001"},{"prefix":"о.п.","label":"о.п. Веретеи, Витебская обл., Беларусь","label_tail":"Витебская обл., Беларусь","value":"Веретеи","gid":"173","lon":55.1375,"lat":27.421666666667,"exp":"2100877","ecp":"164431","otd":"006"},{"prefix":"о.п.","label":"о.п. Веровойша, Витебская обл., Беларусь","label_tail":"Витебская обл., Беларусь","value":"Веровойша","gid":"716","lon":54.516111111111,"lat":30.278888888889,"exp":"2101006","ecp":"142177","otd":"001"},{"prefix":"о.п.","label":"о.п. Верхи, Могилёвская обл., Беларусь","label_tail":"Могилёвская обл., Беларусь","value":"Верхи","gid":"445","lon":53.363888888889,"lat":28.429166666667,"exp":"2100442","ecp":"146011","otd":"005"},{"prefix":"ст.","label":"ст. Верхнедвинск, Витебская обл., Беларусь","label_tail":"Витебская обл., Беларусь","value":"Верхнедвинск","gid":"129","lon":55.816666666667,"lat":27.94,"exp":"2100105","ecp":"161804","otd":"006"},{"prefix":"ст.","label":"ст. Верхутино, Минская обл., Беларусь","label_tail":"Минская обл., Беларусь","value":"Верхутино","gid":"894","lon":52.966944444444,"lat":28.049166666667,"exp":"2100067","ecp":"149022","otd":"005"},{"prefix":"о.п.","label":"о.п. Веселовский, Минская обл., Беларусь","label_tail":"Минская обл., Беларусь","value":"Веселовский","gid":"449","lon":53.389722222222,"lat":28.308611111111,"exp":"2100328","ecp":"145445","otd":"001"},{"prefix":"о.п.","label":"о.п. Ветрино, Витебская обл., Беларусь","label_tail":"Витебская обл., Беларусь","value":"Ветрино","gid":"142","lon":55.406666666667,"lat":28.473333333333,"exp":"2100039","ecp":"165152","otd":"006"},{"prefix":"ст.","label":"ст. Видибор, Брестская обл., Беларусь","label_tail":"Брестская обл., Беларусь","value":"Видибор","gid":"881","lon":51.987777777778,"lat":26.77,"exp":"2101002","ecp":"139302","otd":"002"},{"prefix":"ст.","label":"ст. Вилейка, г. Вилейка, Минская обл., Беларусь","label_tail":"г. Вилейка, Минская обл., Беларусь","value":"Вилейка","gid":"221","lon":54.502222222222,"lat":26.928055555556,"exp":"2100265","ecp":"163602","otd":"001"},{"prefix":"ст.","label":"ст. Вирский, г. Жлобин, Гомельская обл., Беларусь","label_tail":"г. Жлобин, Гомельская обл., Беларусь","value":"Вирский","gid":"389","lon":52.8825,"lat":30.086666666667,"exp":"2100223","ecp":"155042","otd":"004"},{"prefix":"ст.","label":"ст. Витебск-Пассажирский, г. Витебск, Витебская обл., Беларусь","label_tail":"г. Витебск, Витебская обл., Беларусь","value":"Витебск-Пассажирский","gid":"612","lon":55.195,"lat":30.185,"exp":"2100050","ecp":"160002","otd":"006"},{"prefix":"ст.","label":"ст. Влодава, Брестская обл., Беларусь","label_tail":"Брестская обл., Беларусь","value":"Влодава","gid":"917","lon":51.551111111111,"lat":23.612222222222,"exp":"2100560","ecp":"132407","otd":"003"},{"prefix":"о.п.","label":"о.п. Войгяны, Минская обл., Беларусь","label_tail":"Минская обл., Беларусь","value":"Войгяны","gid":"247","lon":54.160277777778,"lat":26.093611111111,"exp":"2100732","ecp":"162436","otd":"001"},{"prefix":"о.п.","label":"о.п. Войтешин, Брестская обл., Беларусь","label_tail":"Брестская обл., Беларусь","value":"Войтешин","gid":"909","lon":52.5125,"lat":25.155833333333,"exp":"2100888","ecp":"134243","otd":"003"},{"prefix":"о.п.","label":"о.п. Войтковичи, Гродненская обл., Беларусь","label_tail":"Гродненская обл., Беларусь","value":"Войтковичи","gid":"472","lon":53.151944444444,"lat":24.572222222222,"exp":"2100543","ecp":"136732","otd":"002"},{"prefix":"о.п.","label":"о.п. Волковыск-Город, г. Волковыск, Гродненская обл., Беларусь","label_tail":"г. Волковыск, Гродненская обл., Беларусь","value":"Волковыск-Город","gid":"466","lon":53.153333333333,"lat":24.447777777778,"exp":"2100276","ecp":"136713","otd":"002"},{"prefix":"ст.","label":"ст. Волковыск-Центральный, г. Волковыск, Гродненская обл., Беларусь","label_tail":"г. Волковыск, Гродненская обл., Беларусь","value":"Волковыск-Центральный","gid":"25","lon":53.138611111111,"lat":24.413888888889,"exp":"2100115","ecp":"136709","otd":"002"},{"prefix":"о.п.","label":"о.п. Воловники, Могилёвская обл., Беларусь","label_tail":"Могилёвская обл., Беларусь","value":"Воловники","gid":"362","lon":53.882777777778,"lat":31.551666666667,"exp":"2100793","ecp":"158252","otd":"005"},{"prefix":"о.п.","label":"о.п. Володьки, Витебская обл., Беларусь","label_tail":"Витебская обл., Беларусь","value":"Володьки","gid":"197","lon":54.989444444444,"lat":27.703333333333,"exp":"2100586","ecp":"163922","otd":"006"},{"prefix":"ст.","label":"ст. Воложин, Минская обл., Беларусь","label_tail":"Минская обл., Беларусь","value":"Воложин","gid":"252","lon":54.22,"lat":26.448888888889,"exp":"2100057","ecp":"162607","otd":"001"},{"prefix":"о.п.","label":"о.п. Волоки, Могилёвская обл., Беларусь","label_tail":"Могилёвская обл., Беларусь","value":"Волоки","gid":"723","lon":54.043611111111,"lat":30.284444444444,"exp":"2100406","ecp":"156539","otd":"005"},{"prefix":"ст.","label":"ст. Волосковня, Могилёвская обл., Беларусь","label_tail":"Могилёвская обл., Беларусь","value":"Волосковня","gid":"375","lon":53.449722222222,"lat":32.040555555556,"exp":"2100587","ecp":"159113","otd":"005"},{"prefix":"о.п.","label":"о.п. Волотова, г. Гомель, Гомельская обл., Беларусь","label_tail":"г. Гомель, Гомельская обл., Беларусь","value":"Волотова","gid":"574","lon":52.477777777778,"lat":31.0325,"exp":"2100817","ecp":"150547","otd":"004"},{"prefix":"о.п.","label":"о.п. Волчковичи, Минская обл., Беларусь","label_tail":"Минская обл., Беларусь","value":"Волчковичи","gid":"328","lon":53.777222222222,"lat":27.388888888889,"exp":"2100473","ecp":"144616","otd":"001"},{"prefix":"ст.","label":"ст. Воничи, Могилёвская обл., Беларусь","label_tail":"Могилёвская обл., Беларусь","value":"Воничи","gid":"828","lon":53.599166666667,"lat":29.499444444444,"exp":"2100077","ecp":"157207","otd":"005"},{"prefix":"о.п.","label":"о.п. Вороново, Гродненская обл., Беларусь","label_tail":"Гродненская обл., Беларусь","value":"Вороново","gid":"28","lon":54.154444444444,"lat":25.301111111111,"exp":"2100722","ecp":"137816","otd":"002"},{"prefix":"ст.","label":"ст. Воропаево, Витебская обл., Беларусь","label_tail":"Витебская обл., Беларусь","value":"Воропаево","gid":"51","lon":55.141666666667,"lat":27.203888888889,"exp":"2100047","ecp":"164408","otd":"006"},{"prefix":"о.п.","label":"о.п. Воротище, Минская обл., Беларусь","label_tail":"Минская обл., Беларусь","value":"Воротище","gid":"430","lon":53.353333333333,"lat":26.569444444444,"exp":"2100554","ecp":"138634","otd":"002"},{"prefix":"о.п.","label":"о.п. Восток, Минская обл., Беларусь","label_tail":"Минская обл., Беларусь","value":"Восток","gid":"888","lon":53.045555555556,"lat":27.322777777778,"exp":"2100829","ecp":"139162","otd":"002"},{"prefix":"о.п.","label":"о.п. Вулька Антопольская, Брестская обл., Беларусь","label_tail":"Брестская обл., Беларусь","value":"Вулька Антопольская","gid":"650","lon":52.183888888889,"lat":24.855555555556,"exp":"2100588","ecp":"132820","otd":"003"},{"prefix":"о.п.","label":"о.п. Вулька Лунинецкая, Брестская обл., Беларусь","label_tail":"Брестская обл., Беларусь","value":"Вулька Лунинецкая","gid":"663","lon":52.282222222222,"lat":26.712777777778,"exp":"2100693","ecp":"133452","otd":"003"},{"prefix":"ст.","label":"ст. Выгода, Гродненская обл., Беларусь","label_tail":"Гродненская обл., Беларусь","value":"Выгода","gid":"421","lon":53.349722222222,"lat":25.6,"exp":"2100172","ecp":"138225","otd":"002"},{"prefix":"о.п.","label":"о.п. Выдерщина, Витебская обл., Беларусь","label_tail":"Витебская обл., Беларусь","value":"Выдерщина","gid":"234","lon":54.444166666667,"lat":29.851944444444,"exp":"2100452","ecp":"142019","otd":"001"},{"prefix":"о.п.","label":"о.п. Выдрея, Витебская обл., Беларусь","label_tail":"Витебская обл., Беларусь","value":"Выдрея","gid":"703","lon":55.021111111111,"lat":30.6025,"exp":"2100491","ecp":"165720","otd":"006"},{"prefix":"о.п.","label":"о.п. Вылазы, Брестская обл., Беларусь","label_tail":"Брестская обл., Беларусь","value":"Вылазы","gid":"660","lon":52.218611111111,"lat":26.351666666667,"exp":"2100835","ecp":"133467","otd":"003"},{"prefix":"ст.","label":"ст. Высоко-Литовск, г. Высокое, Брестская обл., Беларусь","label_tail":"г. Высокое, Брестская обл., Беларусь","value":"Высоко-Литовск","gid":"109","lon":52.400277777778,"lat":23.381111111111,"exp":"2100168","ecp":"131705","otd":"003"},{"prefix":"о.п.","label":"о.п. Высокое-Город, г. Высокое, Брестская обл., Беларусь","label_tail":"г. Высокое, Брестская обл., Беларусь","value":"Высокое-Город","gid":"110","lon":52.357222222222,"lat":23.415277777778,"exp":"2100863","ecp":"131713","otd":"003"},{"prefix":"о.п.","label":"о.п. Вязынка, Минская обл., Беларусь","label_tail":"Минская обл., Беларусь","value":"Вязынка","gid":"275","lon":54.0925,"lat":27.191666666667,"exp":"2100766","ecp":"143416","otd":"001"},{"prefix":"о.п.","label":"о.п. Вятны, Витебская обл., Беларусь","label_tail":"Витебская обл., Беларусь","value":"Вятны","gid":"204","lon":54.753611111111,"lat":29.371388888889,"exp":"2100441","ecp":"168324","otd":"001"},{"prefix":"ст.","label":"ст. Гавья, Гродненская обл., Беларусь","label_tail":"Гродненская обл., Беларусь","value":"Гавья","gid":"322","lon":53.977222222222,"lat":25.650833333333,"exp":"2100061","ecp":"162309","otd":"002"},{"prefix":"о.п.","label":"о.п. Гай, Могилёвская обл., Беларусь","label_tail":"Могилёвская обл., Беларусь","value":"Гай","gid":"843","lon":53.238611111111,"lat":28.896666666667,"exp":"2100902","ecp":"146842","otd":"005"},{"prefix":"ст.","label":"ст. Ганцевичи, г. Ганцевичи, Брестская обл., Беларусь","label_tail":"г. Ганцевичи, Брестская обл., Беларусь","value":"Ганцевичи","gid":"11","lon":52.758333333333,"lat":26.434722222222,"exp":"2100220","ecp":"139603","otd":"002"},{"prefix":"о.п.","label":"о.п. Гаути, Гродненская обл., Беларусь","label_tail":"Гродненская обл., Беларусь","value":"Гаути","gid":"218","lon":54.496111111111,"lat":26.269444444444,"exp":"2100870","ecp":"163212","otd":"001"},{"prefix":"о.п.","label":"о.п. Геолог, Гомельская обл., Беларусь","label_tail":"Гомельская обл., Беларусь","value":"Геолог","gid":"854","lon":52.331944444444,"lat":30.114166666667,"exp":"2100812","ecp":"154463","otd":"004"},{"prefix":"о.п.","label":"о.п. Гибуличи, Гродненская обл., Беларусь","label_tail":"Гродненская обл., Беларусь","value":"Гибуличи","gid":"945","lon":53.613611111111,"lat":23.766111111111,"exp":"2100892","ecp":"135284","otd":"002"},{"prefix":"о.п.","label":"о.п. Глебова Рудня, Могилёвская обл., Беларусь","label_tail":"Могилёвская обл., Беларусь","value":"Глебова Рудня","gid":"537","lon":52.989166666667,"lat":29.153055555556,"exp":"2100349","ecp":"147510","otd":"005"},{"prefix":"ст.","label":"ст. Глубокое, Витебская обл., Беларусь","label_tail":"Витебская обл., Беларусь","value":"Глубокое","gid":"176","lon":55.132777777778,"lat":27.671111111111,"exp":"2100044","ecp":"164906","otd":"006"},{"prefix":"рзд","label":"рзд Глушанино, Витебская обл., Беларусь","label_tail":"Витебская обл., Беларусь","value":"Глушанино","gid":"156","lon":55.394166666667,"lat":29.146388888889,"exp":"2100485","ecp":"161113","otd":"006"},{"prefix":"о.п.","label":"о.п. Глядки, Минская обл., Беларусь","label_tail":"Минская обл., Беларусь","value":"Глядки","gid":"530","lon":52.9125,"lat":27.547777777778,"exp":"2100431","ecp":"148316","otd":"005"},{"prefix":"о.п.","label":"о.п. Годутишки, Витебская обл., Беларусь","label_tail":"Витебская обл., Беларусь","value":"Годутишки","gid":"942","lon":55.151111111111,"lat":26.581944444444,"exp":"2100471","ecp":"164342","otd":"006"},{"prefix":"ст.","label":"ст. Голевицы, Гомельская обл., Беларусь","label_tail":"Гомельская обл., Беларусь","value":"Голевицы","gid":"857","lon":52.160833333333,"lat":29.4925,"exp":"2100198","ecp":"153850","otd":"004"},{"prefix":"о.п.","label":"о.п. Голошевка, Витебская обл., Беларусь","label_tail":"Витебская обл., Беларусь","value":"Голошевка","gid":"719","lon":54.475,"lat":30.071111111111,"exp":"2100438","ecp":"142112","otd":"001"},{"prefix":"ст.","label":"ст. Голынец, Могилёвская обл., Беларусь","label_tail":"Могилёвская обл., Беларусь","value":"Голынец","gid":"747","lon":53.848888888889,"lat":30.161944444444,"exp":"2100526","ecp":"157508","otd":"005"},{"prefix":"о.п.","label":"о.п. Голынка, Гродненская обл., Беларусь","label_tail":"Гродненская обл., Беларусь","value":"Голынка","gid":"465","lon":53.116111111111,"lat":24.364166666667,"exp":"2100311","ecp":"136253","otd":"002"},{"prefix":"о.п.","label":"о.п. Гомель-Нечётный, г. Гомель, Гомельская обл., Беларусь","label_tail":"г. Гомель, Гомельская обл., Беларусь","value":"Гомель-Нечётный","gid":"570","lon":52.446666666667,"lat":30.988888888889,"exp":"2100854","ecp":"150034","otd":"004"},{"prefix":"ст.","label":"ст. Гомель-Северный, г. Гомель, Гомельская обл., Беларусь","label_tail":"г. Гомель, Гомельская обл., Беларусь","value":"Гомель-Северный","gid":"572","lon":52.456111111111,"lat":30.945,"exp":"2101021","ecp":"150138","otd":"004"},{"prefix":"о.п.","label":"о.п. Гомель-Чётный, г. Гомель, Гомельская обл., Беларусь","label_tail":"г. Гомель, Гомельская обл., Беларусь","value":"Гомель-Чётный","gid":"573","lon":52.440555555556,"lat":30.964722222222,"exp":"2100417","ecp":"150119","otd":"004"},{"prefix":"о.п.","label":"о.п. Гомоновка, Могилёвская обл., Беларусь","label_tail":"Могилёвская обл., Беларусь","value":"Гомоновка","gid":"451","lon":53.483888888889,"lat":28.537777777778,"exp":"2100799","ecp":"146132","otd":"005"},{"prefix":"о.п.","label":"о.п. Гончары, Гродненская обл., Беларусь","label_tail":"Гродненская обл., Беларусь","value":"Гончары","gid":"309","lon":53.735833333333,"lat":25.392777777778,"exp":"2100721","ecp":"137627","otd":"002"},{"prefix":"ст.","label":"ст. Городец, Брестская обл., Беларусь","label_tail":"Брестская обл., Беларусь","value":"Городец","gid":"932","lon":52.195833333333,"lat":24.691388888889,"exp":"2100184","ecp":"132801","otd":"003"},{"prefix":"ст.","label":"ст. Городея, Минская обл., Беларусь","label_tail":"Минская обл., Беларусь","value":"Городея","gid":"615","lon":53.314722222222,"lat":26.537777777778,"exp":"2100122","ecp":"138600","otd":"002"},{"prefix":"ст.","label":"ст. Городище, Минская обл., Беларусь","label_tail":"Минская обл., Беларусь","value":"Городище","gid":"64","lon":53.986666666667,"lat":27.846944444444,"exp":"2100510","ecp":"140901","otd":"001"},{"prefix":"пп","label":"пп Городнянский, Витебская обл., Беларусь","label_tail":"Витебская обл., Беларусь","value":"Городнянский","gid":"713","lon":54.547222222222,"lat":30.420833333333,"exp":"2100685","ecp":"166418","otd":"001"},{"prefix":"ст.","label":"ст. Городок, г. Городок, Витебская обл., Беларусь","label_tail":"г. Городок, Витебская обл., Беларусь","value":"Городок","gid":"37","lon":55.470833333333,"lat":30.005,"exp":"2100255","ecp":"160604","otd":"006"},{"prefix":"о.п.","label":"о.п. Городщина, Могилёвская обл., Беларусь","label_tail":"Могилёвская обл., Беларусь","value":"Городщина","gid":"957","lon":53.899444444444,"lat":30.258333333333,"exp":"2101007","ecp":"157527","otd":"005"},{"prefix":"о.п.","label":"о.п. Горожа, Могилёвская обл., Беларусь","label_tail":"Могилёвская обл., Беларусь","value":"Горожа","gid":"834","lon":53.327222222222,"lat":28.768888888889,"exp":"2100881","ecp":"146471","otd":"005"},{"prefix":"ст.","label":"ст. Горочичи, Гомельская обл., Беларусь","label_tail":"Гомельская обл., Беларусь","value":"Горочичи","gid":"869","lon":52.27,"lat":29.419722222222,"exp":"2100251","ecp":"154105","otd":"004"},{"prefix":"ст.","label":"ст. Горынь, Брестская обл., Беларусь","label_tail":"Брестская обл., Беларусь","value":"Горынь","gid":"12","lon":51.851944444444,"lat":26.783055555556,"exp":"2101190","ecp":"139209","otd":"002"},{"prefix":"ст.","label":"ст. Горяны, Витебская обл., Беларусь","label_tail":"Витебская обл., Беларусь","value":"Горяны","gid":"157","lon":55.424722222222,"lat":29.034166666667,"exp":"2100277","ecp":"161128","otd":"006"},{"prefix":"о.п.","label":"о.п. Грабовка, Гомельская обл., Беларусь","label_tail":"Гомельская обл., Беларусь","value":"Грабовка","gid":"592","lon":52.178888888889,"lat":31.113055555556,"exp":"2100919","ecp":"150316","otd":"004"},{"prefix":"о.п.","label":"о.п. Гребнево, Витебская обл., Беларусь","label_tail":"Витебская обл., Беларусь","value":"Гребнево","gid":"707","lon":54.611111111111,"lat":30.206944444444,"exp":"2100262","ecp":"168714","otd":"001"},{"prefix":"ст.","label":"ст. Грибачи, Витебская обл., Беларусь","label_tail":"Витебская обл., Беларусь","value":"Грибачи","gid":"136","lon":55.764722222222,"lat":29.997777777778,"exp":"2100484","ecp":"160731","otd":"006"},{"prefix":"о.п.","label":"о.п. Гриньки, Гродненская обл., Беларусь","label_tail":"Гродненская обл., Беларусь","value":"Гриньки","gid":"477","lon":53.076111111111,"lat":25.150833333333,"exp":"2100498","ecp":"136910","otd":"002"},{"prefix":"ст.","label":"ст. Грицевец, Брестская обл., Беларусь","label_tail":"Брестская обл., Беларусь","value":"Грицевец","gid":"900","lon":53.040277777778,"lat":25.863055555556,"exp":"2100126","ecp":"134506","otd":"002"},{"prefix":"пп","label":"пп Гришаны, г. Витебск, Витебская обл., Беларусь","label_tail":"г. Витебск, Витебская обл., Беларусь","value":"Гришаны","gid":"698","lon":55.178055555556,"lat":30.098055555556,"exp":"2100488","ecp":"160017","otd":"006"},{"prefix":"ст.","label":"ст. Гродзянка, Могилёвская обл., Беларусь","label_tail":"Могилёвская обл., Беларусь","value":"Гродзянка","gid":"34","lon":53.545833333333,"lat":28.743333333333,"exp":"2100531","ecp":"146306","otd":"005"},{"prefix":"о.п.","label":"о.п. Грушевка, Гомельская обл., Беларусь","label_tail":"Гомельская обл., Беларусь","value":"Грушевка","gid":"605","lon":52.184166666667,"lat":31.458333333333,"exp":"2100445","ecp":"150710","otd":"004"},{"prefix":"о.п.","label":"о.п. Гряда, Могилёвская обл., Беларусь","label_tail":"Могилёвская обл., Беларусь","value":"Гряда","gid":"509","lon":53.207777777778,"lat":28.535,"exp":"2100786","ecp":"149215","otd":"005"},{"prefix":"ст.","label":"ст. Гудогай, Гродненская обл., Беларусь","label_tail":"Гродненская обл., Беларусь","value":"Гудогай","gid":"214","lon":54.596388888889,"lat":25.893333333333,"exp":"2100024","ecp":"163000","otd":"001"},{"prefix":"ст.","label":"ст. Гуды, Гродненская обл., Беларусь","label_tail":"Гродненская обл., Беларусь","value":"Гуды","gid":"318","lon":53.956666666667,"lat":25.265,"exp":"2100682","ecp":"137701","otd":"002"},{"prefix":"о.п.","label":"о.п. Гута, Витебская обл., Беларусь","label_tail":"Витебская обл., Беларусь","value":"Гута","gid":"169","lon":55.206111111111,"lat":27.195,"exp":"2100589","ecp":"164836","otd":"006"},{"prefix":"ст.","label":"ст. Гутно, Гродненская обл., Беларусь","label_tail":"Гродненская обл., Беларусь","value":"Гутно","gid":"316","lon":53.916666666667,"lat":25.36,"exp":"2100521","ecp":"138009","otd":"002"},{"prefix":"о.п.","label":"о.п. Далекий, Гродненская обл., Беларусь","label_tail":"Гродненская обл., Беларусь","value":"Далекий","gid":"314","lon":53.821388888889,"lat":25.213055555556,"exp":"2100738","ecp":"137557","otd":"002"},{"prefix":"о.п.","label":"о.п. Данилов Мост, Могилёвская обл., Беларусь","label_tail":"Могилёвская обл., Беларусь","value":"Данилов Мост","gid":"541","lon":52.978888888889,"lat":29.7275,"exp":"2100331","ecp":"147830","otd":"005"},{"prefix":"о.п.","label":"о.п. Даниловцы, Гродненская обл., Беларусь","label_tail":"Гродненская обл., Беларусь","value":"Даниловцы","gid":"468","lon":53.326388888889,"lat":24.43,"exp":"2101041","ecp":"137222","otd":"002"},{"prefix":"ст.","label":"ст. Дараганово, Могилёвская обл., Беларусь","label_tail":"Могилёвская обл., Беларусь","value":"Дараганово","gid":"896","lon":53.175833333333,"lat":28.490277777778,"exp":"2100069","ecp":"149234","otd":"005"},{"prefix":"о.п.","label":"о.п. Дарливое, Могилёвская обл., Беларусь","label_tail":"Могилёвская обл., Беларусь","value":"Дарливое","gid":"360","lon":53.761666666667,"lat":31.645277777778,"exp":"2100592","ecp":"158132","otd":"005"},{"prefix":"о.п.","label":"о.п. Дары, Могилёвская обл., Беларусь","label_tail":"Могилёвская обл., Беларусь","value":"Дары","gid":"736","lon":53.848055555556,"lat":30.533611111111,"exp":"2100593","ecp":"157718","otd":"005"},{"prefix":"о.п.","label":"о.п. Дачная, Могилёвская обл., Беларусь","label_tail":"Могилёвская обл., Беларусь","value":"Дачная","gid":"842","lon":53.253055555556,"lat":28.864722222222,"exp":"2100912","ecp":"146734","otd":"005"},{"prefix":"о.п.","label":"о.п. Дачное, Брестская обл., Беларусь","label_tail":"Брестская обл., Беларусь","value":"Дачное","gid":"116","lon":52.18,"lat":23.595,"exp":"2100860","ecp":"132229","otd":"003"},{"prefix":"о.п.","label":"о.п. Дачный, Гомельская обл., Беларусь","label_tail":"Гомельская обл., Беларусь","value":"Дачный","gid":"583","lon":52.364444444444,"lat":31.0675,"exp":"2100899","ecp":"150343","otd":"004"},{"prefix":"ст.","label":"ст. Дашковка, Могилёвская обл., Беларусь","label_tail":"Могилёвская обл., Беларусь","value":"Дашковка","gid":"825","lon":53.7475,"lat":30.240555555556,"exp":"2100591","ecp":"156242","otd":"005"},{"prefix":"о.п.","label":"о.п. Дворец, Гродненская обл., Беларусь","label_tail":"Гродненская обл., Беларусь","value":"Дворец","gid":"420","lon":53.403333333333,"lat":25.580833333333,"exp":"2100694","ecp":"138210","otd":"002"},{"prefix":"о.п.","label":"о.п. Дегтяны, Минская обл., Беларусь","label_tail":"Минская обл., Беларусь","value":"Дегтяны","gid":"501","lon":53.066111111111,"lat":26.825,"exp":"2100536","ecp":"139020","otd":"002"},{"prefix":"о.п.","label":"о.п. Дедново, г. Бобруйск, Могилёвская обл., Беларусь","label_tail":"г. Бобруйск, Могилёвская обл., Беларусь","value":"Дедново","gid":"924","lon":53.134166666667,"lat":29.172222222222,"exp":"2100911","ecp":"147027","otd":"005"},{"prefix":"о.п.","label":"о.п. Дедовка, Гомельская обл., Беларусь","label_tail":"Гомельская обл., Беларусь","value":"Дедовка","gid":"672","lon":52.231111111111,"lat":27.661111111111,"exp":"2100901","ecp":"152167","otd":"002"},{"prefix":"ст.","label":"ст. Демехи, Гомельская обл., Беларусь","label_tail":"Гомельская обл., Беларусь","value":"Демехи","gid":"402","lon":52.334166666667,"lat":30.202222222222,"exp":"2100203","ecp":"154459","otd":"004"},{"prefix":"о.п.","label":"о.п. Депо, г. Кричев, Могилёвская обл., Беларусь","label_tail":"г. Кричев, Могилёвская обл., Беларусь","value":"Депо","gid":"361","lon":53.753055555556,"lat":31.701666666667,"exp":"2100823","ecp":"158144","otd":"005"},{"prefix":"о.п.","label":"о.п. Деповской, г. Жлобин, Гомельская обл., Беларусь","label_tail":"г. Жлобин, Гомельская обл., Беларусь","value":"Деповской","gid":"545","lon":52.893611111111,"lat":29.996111111111,"exp":"2100332","ecp":"155023","otd":"004"},{"prefix":"ст.","label":"ст. Деревцы, Могилёвская обл., Беларусь","label_tail":"Могилёвская обл., Беларусь","value":"Деревцы","gid":"897","lon":53.256111111111,"lat":28.5625,"exp":"2100071","ecp":"149222","otd":"005"},{"prefix":"о.п.","label":"о.п. Детковичи, Брестская обл., Беларусь","label_tail":"Брестская обл., Беларусь","value":"Детковичи","gid":"482","lon":53.120277777778,"lat":25.692777777778,"exp":"2100752","ecp":"137063","otd":"002"},{"prefix":"о.п.","label":"о.п. Дзержинск, г. Дзержинск, Минская обл., Беларусь","label_tail":"г. Дзержинск, Минская обл., Беларусь","value":"Дзержинск","gid":"45","lon":53.672222222222,"lat":27.133611111111,"exp":"2100467","ecp":"144442","otd":"001"},{"prefix":"о.п.","label":"о.п. Дикаловка, Гомельская обл., Беларусь","label_tail":"Гомельская обл., Беларусь","value":"Дикаловка","gid":"589","lon":52.141666666667,"lat":31.125555555556,"exp":"2101237","ecp":"150320","otd":"004"},{"prefix":"о.п.","label":"о.п. Дитва, Гродненская обл., Беларусь","label_tail":"Гродненская обл., Беларусь","value":"Дитва","gid":"308","lon":53.751944444444,"lat":25.3825,"exp":"2100842","ecp":"137631","otd":"002"},{"prefix":"о.п.","label":"о.п. Дитрики, Гродненская обл., Беларусь","label_tail":"Гродненская обл., Беларусь","value":"Дитрики","gid":"307","lon":53.698055555556,"lat":25.408333333333,"exp":"2100906","ecp":"137650","otd":"002"},{"prefix":"о.п.","label":"о.п. Добрино, Витебская обл., Беларусь","label_tail":"Витебская обл., Беларусь","value":"Добрино","gid":"753","lon":55.316111111111,"lat":29.497777777778,"exp":"2101005","ecp":"160939","otd":"006"},{"prefix":"ст.","label":"ст. Добруш, г. Добруш, Гомельская обл., Беларусь","label_tail":"г. Добруш, Гомельская обл., Беларусь","value":"Добруш","gid":"30","lon":52.398333333333,"lat":31.32,"exp":"2100192","ecp":"150509","otd":"004"},{"prefix":"о.п.","label":"о.п. Довгердишки, Гродненская обл., Беларусь","label_tail":"Гродненская обл., Беларусь","value":"Довгердишки","gid":"242","lon":54.090555555556,"lat":25.965555555556,"exp":"2100734","ecp":"162417","otd":"002"},{"prefix":"о.п.","label":"о.п. Должа, Витебская обл., Беларусь","label_tail":"Витебская обл., Беларусь","value":"Должа","gid":"956","lon":55.355833333333,"lat":30.089444444444,"exp":"2100931","ecp":"160356","otd":"006"},{"prefix":"ст.","label":"ст. Доманово, Брестская обл., Беларусь","label_tail":"Брестская обл., Беларусь","value":"Доманово","gid":"902","lon":52.827222222222,"lat":25.471111111111,"exp":"2100136","ecp":"134309","otd":"003"},{"prefix":"о.п.","label":"о.п. Домановский, Минская обл., Беларусь","label_tail":"Минская обл., Беларусь","value":"Домановский","gid":"223","lon":54.420833333333,"lat":26.879722222222,"exp":"2101023","ecp":"162926","otd":"001"},{"prefix":"о.п.","label":"о.п. Домачево, Брестская обл., Беларусь","label_tail":"Брестская обл., Беларусь","value":"Домачево","gid":"84","lon":51.731111111111,"lat":23.622777777778,"exp":"2100702","ecp":"132337","otd":"003"},{"prefix":"о.п.","label":"о.п. Домашаны, Минская обл., Беларусь","label_tail":"Минская обл., Беларусь","value":"Домашаны","gid":"62","lon":53.993055555556,"lat":27.951111111111,"exp":"2101151","ecp":"140935","otd":"001"},{"prefix":"ст.","label":"ст. Домашевичи, Брестская обл., Беларусь","label_tail":"Брестская обл., Беларусь","value":"Домашевичи","gid":"904","lon":53.1925,"lat":25.931944444444,"exp":"2100552","ecp":"138422","otd":"002"},{"prefix":"о.п.","label":"о.п. Дрануха, Могилёвская обл., Беларусь","label_tail":"Могилёвская обл., Беларусь","value":"Дрануха","gid":"357","lon":53.761111111111,"lat":31.028611111111,"exp":"2100596","ecp":"158017","otd":"005"},{"prefix":"о.п.","label":"о.п. Дребск, Брестская обл., Беларусь","label_tail":"Брестская обл., Беларусь","value":"Дребск","gid":"670","lon":52.228888888889,"lat":27.023888888889,"exp":"2100681","ecp":"139444","otd":"002"},{"prefix":"ст.","label":"ст. Дретунь, Витебская обл., Беларусь","label_tail":"Витебская обл., Беларусь","value":"Дретунь","gid":"135","lon":55.698611111111,"lat":29.213888888889,"exp":"2100034","ecp":"161518","otd":"006"},{"prefix":"о.п.","label":"о.п. Дричин, Минская обл., Беларусь","label_tail":"Минская обл., Беларусь","value":"Дричин","gid":"439","lon":53.561111111111,"lat":28.008611111111,"exp":"2100523","ecp":"145322","otd":"001"},{"prefix":"ст.","label":"ст. Дрогичин, Брестская обл., Беларусь","label_tail":"Брестская обл., Беларусь","value":"Дрогичин","gid":"656","lon":52.181944444444,"lat":25.054722222222,"exp":"2100125","ecp":"132905","otd":"003"},{"prefix":"о.п.","label":"о.п. Дрогичин-Город, г. Дрогичин, Брестская обл., Беларусь","label_tail":"г. Дрогичин, Брестская обл., Беларусь","value":"Дрогичин-Город","gid":"655","lon":52.179444444444,"lat":25.150277777778,"exp":"2100562","ecp":"132919","otd":"003"},{"prefix":"ст.","label":"ст. Друть, Могилёвская обл., Беларусь","label_tail":"Могилёвская обл., Беларусь","value":"Друть","gid":"342","lon":53.703888888889,"lat":29.775,"exp":"2100079","ecp":"157300","otd":"005"},{"prefix":"ст.","label":"ст. Друя, Витебская обл., Беларусь","label_tail":"Витебская обл., Беларусь","value":"Друя","gid":"127","lon":55.778055555556,"lat":27.480277777778,"exp":"2100056","ecp":"164605","otd":"006"},{"prefix":"ст.","label":"ст. Дубица, Брестская обл., Беларусь","label_tail":"Брестская обл., Беларусь","value":"Дубица","gid":"87","lon":51.804444444444,"lat":23.644166666667,"exp":"2100182","ecp":"132303","otd":"003"},{"prefix":"о.п.","label":"о.п. Дубно, Гродненская обл., Беларусь","label_tail":"Гродненская обл., Беларусь","value":"Дубно","gid":"354","lon":53.459722222222,"lat":24.388333333333,"exp":"2100746","ecp":"135439","otd":"002"},{"prefix":"о.п.","label":"о.п. Дубновичи, Брестская обл., Беларусь","label_tail":"Брестская обл., Беларусь","value":"Дубновичи","gid":"659","lon":52.268333333333,"lat":26.446111111111,"exp":"2100836","ecp":"133471","otd":"003"},{"prefix":"о.п.","label":"о.п. Дубок, Брестская обл., Беларусь","label_tail":"Брестская обл., Беларусь","value":"Дубок","gid":"81","lon":51.9875,"lat":23.848611111111,"exp":"2101047","ecp":"132549","otd":"003"},{"prefix":"ст.","label":"ст. Дубравы, Минская обл., Беларусь","label_tail":"Минская обл., Беларусь","value":"Дубравы","gid":"269","lon":54.107222222222,"lat":27.141111111111,"exp":"2100515","ecp":"143401","otd":"001"},{"prefix":"о.п.","label":"о.п. Дубровичи, Гомельская обл., Беларусь","label_tail":"Гомельская обл., Беларусь","value":"Дубровичи","gid":"683","lon":52.147222222222,"lat":29.345277777778,"exp":"2100278","ecp":"153827","otd":"004"},{"prefix":"о.п.","label":"о.п. Дударево, Гомельская обл., Беларусь","label_tail":"Гомельская обл., Беларусь","value":"Дударево","gid":"581","lon":52.388888888889,"lat":31.218888888889,"exp":"2100411","ecp":"150231","otd":"004"},{"prefix":"о.п.","label":"о.п. Дудичи, Гомельская обл., Беларусь","label_tail":"Гомельская обл., Беларусь","value":"Дудичи","gid":"682","lon":52.182222222222,"lat":29.365833333333,"exp":"2100597","ecp":"153831","otd":"004"},{"prefix":"о.п.","label":"о.п. Дятловичи, Брестская обл., Беларусь","label_tail":"Брестская обл., Беларусь","value":"Дятловичи","gid":"639","lon":52.359722222222,"lat":26.793888888889,"exp":"2100131","ecp":"139463","otd":"002"},{"prefix":"о.п.","label":"о.п. Дятлово, Витебская обл., Беларусь","label_tail":"Витебская обл., Беларусь","value":"Дятлово","gid":"720","lon":54.478055555556,"lat":30.129166666667,"exp":"2100437","ecp":"142127","otd":"001"},{"prefix":"ст.","label":"ст. Езерище, Витебская обл., Беларусь","label_tail":"Витебская обл., Беларусь","value":"Езерище","gid":"137","lon":55.838611111111,"lat":29.975833333333,"exp":"2100041","ecp":"160801","otd":"006"},{"prefix":"ст.","label":"ст. Елизово, Могилёвская обл., Беларусь","label_tail":"Могилёвская обл., Беларусь","value":"Елизово","gid":"833","lon":53.400555555556,"lat":28.991944444444,"exp":"2100073","ecp":"157003","otd":"005"},{"prefix":"ст.","label":"ст. Ельск, г. Ельск, Гомельская обл., Беларусь","label_tail":"г. Ельск, Гомельская обл., Беларусь","value":"Ельск","gid":"44","lon":51.821111111111,"lat":29.153611111111,"exp":"2100135","ecp":"151304","otd":"004"},{"prefix":"о.п.","label":"о.п. Еремино, Гомельская обл., Беларусь","label_tail":"Гомельская обл., Беларусь","value":"Еремино","gid":"560","lon":52.512222222222,"lat":30.951944444444,"exp":"2100248","ecp":"150015","otd":"004"},{"prefix":"о.п.","label":"о.п. Ермоловка, Могилёвская обл., Беларусь","label_tail":"Могилёвская обл., Беларусь","value":"Ермоловка","gid":"722","lon":54.379166666667,"lat":30.659444444444,"exp":"2100847","ecp":"158619","otd":"005"},{"prefix":"о.п.","label":"о.п. Ёткишки, Гродненская обл., Беларусь","label_tail":"Гродненская обл., Беларусь","value":"Ёткишки","gid":"953","lon":54.208333333333,"lat":25.349444444444,"exp":"2100930","ecp":"137913","otd":"002"},{"prefix":"ст.","label":"ст. Жабинка, г. Жабинка, Брестская обл., Беларусь","label_tail":"г. Жабинка, Брестская обл., Беларусь","value":"Жабинка","gid":"20","lon":52.201666666667,"lat":24.019166666667,"exp":"2100095","ecp":"131207","otd":"003"},{"prefix":"ст.","label":"ст. Ждановичи, Минская обл., Беларусь","label_tail":"Минская обл., Беларусь","value":"Ждановичи","gid":"338","lon":53.947222222222,"lat":27.425277777778,"exp":"2100279","ecp":"143651","otd":"001"},{"prefix":"о.п.","label":"о.п. Железница, Брестская обл., Беларусь","label_tail":"Брестская обл., Беларусь","value":"Железница","gid":"921","lon":53.253055555556,"lat":25.841666666667,"exp":"2100923","ecp":"138456","otd":"002"},{"prefix":"о.п.","label":"о.п. Железнодорожный, г. Минск, Минская обл., Беларусь","label_tail":"г. Минск, Минская обл., Беларусь","value":"Железнодорожный","gid":"780","lon":53.819722222222,"lat":27.572222222222,"exp":"2100917","ecp":"140526","otd":"001"},{"prefix":"о.п.","label":"о.п. Желудок, Гродненская обл., Беларусь","label_tail":"Гродненская обл., Беларусь","value":"Желудок","gid":"416","lon":53.625,"lat":24.894722222222,"exp":"2100742","ecp":"137415","otd":"002"},{"prefix":"о.п.","label":"о.п. Жемчужина, Брестская обл., Беларусь","label_tail":"Брестская обл., Беларусь","value":"Жемчужина","gid":"80","lon":51.995,"lat":23.8375,"exp":"2101046","ecp":"132553","otd":"003"},{"prefix":"ст.","label":"ст. Жердь, Гомельская обл., Беларусь","label_tail":"Гомельская обл., Беларусь","value":"Жердь","gid":"866","lon":52.548333333333,"lat":29.628333333333,"exp":"2100227","ecp":"154162","otd":"004"},{"prefix":"о.п.","label":"о.п. Жеребковичи, Брестская обл., Беларусь","label_tail":"Брестская обл., Беларусь","value":"Жеребковичи","gid":"497","lon":53.078611111111,"lat":26.4525,"exp":"2100535","ecp":"138954","otd":"002"},{"prefix":"о.п.","label":"о.п. Жестянка, Витебская обл., Беларусь","label_tail":"Витебская обл., Беларусь","value":"Жестянка","gid":"207","lon":54.865833333333,"lat":29.051944444444,"exp":"2100689","ecp":"168216","otd":"001"},{"prefix":"о.п.","label":"о.п. Жефарово, Витебская обл., Беларусь","label_tail":"Витебская обл., Беларусь","value":"Жефарово","gid":"171","lon":55.143333333333,"lat":27.080555555556,"exp":"2100598","ecp":"164338","otd":"006"},{"prefix":"о.п.","label":"о.п. Жиличи, Гродненская обл., Беларусь","label_tail":"Гродненская обл., Беларусь","value":"Жиличи","gid":"463","lon":53.099444444444,"lat":24.045833333333,"exp":"2100757","ecp":"136215","otd":"002"},{"prefix":"ст.","label":"ст. Житковичи, г. Житковичи, Гомельская обл., Беларусь","label_tail":"г. Житковичи, Гомельская обл., Беларусь","value":"Житковичи","gid":"8","lon":52.218611111111,"lat":27.856111111111,"exp":"2100230","ecp":"153301","otd":"004"},{"prefix":"ст.","label":"ст. Житомля, Гродненская обл., Беларусь","label_tail":"Гродненская обл., Беларусь","value":"Житомля","gid":"349","lon":53.618611111111,"lat":24.107777777778,"exp":"2100157","ecp":"135335","otd":"002"},{"prefix":"ст.","label":"ст. Жлобин-Западный, г. Жлобин, Гомельская обл., Беларусь","label_tail":"г. Жлобин, Гомельская обл., Беларусь","value":"Жлобин-Западный","gid":"544","lon":52.895277777778,"lat":29.958333333333,"exp":"2100532","ecp":"155038","otd":"004"},{"prefix":"ст.","label":"ст. Жлобин-Подольский, г. Жлобин, Гомельская обл., Беларусь","label_tail":"г. Жлобин, Гомельская обл., Беларусь","value":"Жлобин-Подольский","gid":"390","lon":52.865555555556,"lat":30.025833333333,"exp":"2100533","ecp":"154270","otd":"004"},{"prefix":"ст.","label":"ст. Жлобин-Северный, г. Жлобин, Гомельская обл., Беларусь","label_tail":"г. Жлобин, Гомельская обл., Беларусь","value":"Жлобин-Северный","gid":"386","lon":52.915277777778,"lat":30.004444444444,"exp":"2100408","ecp":"155822","otd":"004"},{"prefix":"ст.","label":"ст. Жлобин-Сортировочный, г. Жлобин, Гомельская обл., Беларусь","label_tail":"г. Жлобин, Гомельская обл., Беларусь","value":"Жлобин-Сортировочный","gid":"388","lon":52.89,"lat":30.013055555556,"exp":"2100798","ecp":"155841","otd":"004"},{"prefix":"ст.","label":"ст. Жодино, г. Жодино, Минская обл., Беларусь","label_tail":"г. Жодино, Минская обл., Беларусь","value":"Жодино","gid":"283","lon":54.102222222222,"lat":28.340833333333,"exp":"2100145","ecp":"141302","otd":"001"},{"prefix":"о.п.","label":"о.п. Жодино-Южное, г. Жодино, Минская обл., Беларусь","label_tail":"г. Жодино, Минская обл., Беларусь","value":"Жодино-Южное","gid":"284","lon":54.086666666667,"lat":28.315277777778,"exp":"2100459","ecp":"141213","otd":"001"},{"prefix":"о.п.","label":"о.п. Журавинка, Гомельская обл., Беларусь","label_tail":"Гомельская обл., Беларусь","value":"Журавинка","gid":"591","lon":52.1925,"lat":31.108611111111,"exp":"2100890","ecp":"150662","otd":"004"},{"prefix":"о.п.","label":"о.п. Журавинка, Брестская обл., Беларусь","label_tail":"Брестская обл., Беларусь","value":"Журавинка","gid":"661","lon":52.1725,"lat":26.795555555556,"exp":"2100908","ecp":"139321","otd":"002"}]
