[{"prefix":"о.п.","label":"о.п. Авраамовская, Гомельская обл., Беларусь","label_tail":"Гомельская обл., Беларусь","value":"Авраамовская","gid":"951","lon":52.051666666667,"lat":29.995,"exp":"2100594","ecp":"154529","otd":"004"},{"prefix":"ст.","label":"ст. Адамово, Витебская обл., Беларусь","label_tail":"Витебская обл., Беларусь","value":"Адамово","gid":"141","lon":55.621111111111,"lat":28.469166666667,"exp":"2100480","ecp":"162012","otd":"006"},{"prefix":"о.п.","label":"о.п. Адровка, Витебская обл., Беларусь","label_tail":"Витебская обл., Беларусь","value":"Адровка","gid":"706","lon":54.636111111111,"lat":30.05,"exp":"2100261","ecp":"168663","otd":"001"},{"prefix":"о.п.","label":"о.п. Александрия, Могилёвская обл., Беларусь","label_tail":"Могилёвская обл., Беларусь","value":"Александрия","gid":"804","lon":54.3425,"lat":30.277777777778,"exp":"2100409","ecp":"156929","otd":"005"},{"prefix":"о.п.","label":"о.п. Александровка, Минская обл., Беларусь","label_tail":"Минская обл., Беларусь","value":"Александровка","gid":"508","lon":53.080277777778,"lat":28.291666666667,"exp":"2100784","ecp":"149111","otd":"005"},{"prefix":"о.п.","label":"о.п. Алёнушка, Брестская обл., Беларусь","label_tail":"Брестская обл., Беларусь","value":"Алёнушка","gid":"937","lon":52.188888888889,"lat":26.289166666667,"exp":"2100651","ecp":"133310","otd":"003"},{"prefix":"ст.","label":"ст. Алеща, Витебская обл., Беларусь","label_tail":"Витебская обл., Беларусь","value":"Алеща","gid":"134","lon":55.734166666667,"lat":29.328611111111,"exp":"2100234","ecp":"161607","otd":"006"},{"prefix":"ст.","label":"ст. Андреевичи, Гродненская обл., Беларусь","label_tail":"Гродненская обл., Беларусь","value":"Андреевичи","gid":"765","lon":53.111388888889,"lat":24.3,"exp":"2100667","ecp":"136249","otd":"002"},{"prefix":"о.п.","label":"о.п. Антоновка, Могилёвская обл., Беларусь","label_tail":"Могилёвская обл., Беларусь","value":"Антоновка","gid":"737","lon":53.840555555556,"lat":30.606944444444,"exp":"2100575","ecp":"157724","otd":"005"},{"prefix":"о.п.","label":"о.п. Антополь, Гомельская обл., Беларусь","label_tail":"Гомельская обл., Беларусь","value":"Антополь","gid":"403","lon":52.336111111111,"lat":30.2275,"exp":"2101004","ecp":"154726","otd":"004"},{"prefix":"о.п.","label":"о.п. Антополь, Брестская обл., Беларусь","label_tail":"Брестская обл., Беларусь","value":"Антополь","gid":"649","lon":52.189444444444,"lat":24.780277777778,"exp":"2100561","ecp":"132816","otd":"003"},{"prefix":"о.п.","label":"о.п. Анусино, Минская обл., Беларусь","label_tail":"Минская обл., Беларусь","value":"Анусино","gid":"272","lon":54.049166666667,"lat":27.224444444444,"exp":"2100765","ecp":"143524","otd":"001"},{"prefix":"о.п.","label":"о.п. Апалоновка, Могилёвская обл., Беларусь","label_tail":"Могилёвская обл., Беларусь","value":"Апалоновка","gid":"806","lon":54.184722222222,"lat":30.290833333333,"exp":"2100857","ecp":"156825","otd":"005"},{"prefix":"о.п.","label":"о.п. Асановский, Минская обл., Беларусь","label_tail":"Минская обл., Беларусь","value":"Асановский","gid":"253","lon":54.331666666667,"lat":26.730277777778,"exp":"2100866","ecp":"163528","otd":"001"},{"prefix":"п.п.","label":"п.п. Асеевка, Минская обл., Беларусь","label_tail":"Минская обл., Беларусь","value":"Асеевка","gid":"58","lon":53.768611111111,"lat":27.653333333333,"exp":"2100319","ecp":"144832","otd":"001"},{"prefix":"о.п.","label":"о.п. Асино, Минская обл., Беларусь","label_tail":"Минская обл., Беларусь","value":"Асино","gid":"422","lon":53.5575,"lat":26.993888888889,"exp":"2101011","ecp":"144438","otd":"002"},{"prefix":"ст.","label":"ст. Аульс, г. Гродно, Гродненская обл., Беларусь","label_tail":"г. Гродно, Гродненская обл., Беларусь","value":"Аульс","gid":"620","lon":53.674166666667,"lat":23.96,"exp":"2100545","ecp":"135301","otd":"002"},{"prefix":"ст.","label":"ст. Осиповичи-1, г. Осиповичи, Могилёвская обл., Беларусь","label_tail":"г. Осиповичи, Могилёвская обл., Беларусь","value":"Осиповичи-1","gid":"35","lon":53.299166666667,"lat":28.646666666667,"exp":"2100270","ecp":"146407","otd":"005"},{"prefix":"ст.","label":"ст. Осиповичи-2, г. Осиповичи, Могилёвская обл., Беларусь","label_tail":"г. Осиповичи, Могилёвская обл., Беларусь","value":"Осиповичи-2","gid":"835","lon":53.301944444444,"lat":28.703888888889,"exp":"2100271","ecp":"146414","otd":"005"},{"prefix":"ст.","label":"ст. Осиповичи-3, г. Осиповичи, Могилёвская обл., Беларусь","label_tail":"г. Осиповичи, Могилёвская обл., Беларусь","value":"Осиповичи-3","gid":"840","lon":53.282222222222,"lat":28.713055555556,"exp":"2100272","ecp":"146433","otd":"005"},{"prefix":"ст.","label":"ст. Помыслище, аг. Щомыслица, Минская обл., Беларусь","label_tail":"аг. Щомыслица, Минская обл., Беларусь","value":"Помыслище","gid":"330","lon":53.815555555556,"lat":27.453333333333,"exp":"2100522","ecp":"144635","otd":"001"},{"prefix":"о.п.","label":"о.п. Советский, г. Осиповичи, Могилёвская обл., Беларусь","label_tail":"г. Осиповичи, Могилёвская обл., Беларусь","value":"Советский","gid":"838","lon":53.316944444444,"lat":28.586111111111,"exp":"2100795","ecp":"146448","otd":"005"},{"prefix":"о.п.","label":"о.п. Юбилейный, г. Осиповичи, Могилёвская обл., Беларусь","label_tail":"г. Осиповичи, Могилёвская обл., Беларусь","value":"Юбилейный","gid":"839","lon":53.308888888889,"lat":28.613888888889,"exp":"2100796","ecp":"146467","otd":"005"},{"prefix":"ст.","label":"ст. Артем, Россия","label_tail":"Россия","value":"Артем","gid":"0","lon":132.18333333333,"lat":43.35,"exp":"2035670","ecp":"0","otd":null},{"prefix":"ст.","label":"ст. Архангельск, Россия","label_tail":"Россия","value":"Архангельск","gid":"0","lon":40.574722222222,"lat":64.551111111111,"exp":"2010441","ecp":"0","otd":null},{"prefix":"г.","label":"г. Алма-Ата, Казахстан","label_tail":"Казахстан","value":"Алма-Ата","gid":"0","lon":76.9,"lat":43.25,"exp":"2700000","ecp":"0","otd":null},{"prefix":"ст.","label":"ст. Артем Приморский 1, Россия","label_tail":"Россия","value":"Артем Приморский 1","gid":"0","lon":132.19027777778,"lat":43.379166666667,"exp":"2034707","ecp":"0","otd":null},{"prefix":"ст.","label":"ст. Архангельск Город, Россия","label_tail":"Россия","value":"Архангельск Город","gid":"0","lon":40.574166666667,"lat":64.551111111111,"exp":"2010400","ecp":"0","otd":null},{"prefix":"о.п.","label":"о.п. Национальный аэропорт «Минск», г. Минск, Минская обл., Беларусь","label_tail":"г. Минск, Минская обл., Беларусь","value":"Национальный аэропорт «Минск»","gid":"958","lon":53.888888888889,"lat":28.048333333333,"exp":"2100302","ecp":"141124","otd":"001"},{"prefix":"ст.","label":"ст. Алма-Ата 2, Казахстан","label_tail":"Казахстан","value":"Алма-Ата 2","gid":"0","lon":76.939166666667,"lat":43.273888888889,"exp":"2700001","ecp":"0","otd":null},{"prefix":"ст.","label":"ст. А-Курумоч, Россия","label_tail":"Россия","value":"А-Курумоч","gid":"0","lon":0,"lat":0,"exp":"2024219","ecp":"0","otd":null},{"prefix":"ст.","label":"ст. Аакре, Эстония","label_tail":"Эстония","value":"Аакре","gid":"0","lon":0,"lat":0,"exp":"2600186","ecp":"0","otd":null},{"prefix":"ст.","label":"ст. Аален, Германия","label_tail":"Германия","value":"Аален","gid":"0","lon":0,"lat":0,"exp":"8073104","ecp":"0","otd":null},{"prefix":"ст.","label":"ст. Аардла, Эстония","label_tail":"Эстония","value":"Аардла","gid":"0","lon":0,"lat":0,"exp":"2600196","ecp":"0","otd":null},{"prefix":"ст.","label":"ст. Аахен Гл, Германия","label_tail":"Германия","value":"Аахен Гл","gid":"0","lon":0,"lat":0,"exp":"8052101","ecp":"0","otd":null},{"prefix":"ст.","label":"ст. Абабково, Россия","label_tail":"Россия","value":"Абабково","gid":"0","lon":43.156388888889,"lat":56.034166666667,"exp":"2061428","ecp":"0","otd":null},{"prefix":"ст.","label":"ст. Абагур-Лесной, Россия","label_tail":"Россия","value":"Абагур-Лесной","gid":"0","lon":87.252222222222,"lat":53.725833333333,"exp":"2028104","ecp":"0","otd":null},{"prefix":"ст.","label":"ст. Абагуровский, Россия","label_tail":"Россия","value":"Абагуровский","gid":"0","lon":87.221666666667,"lat":53.686944444444,"exp":"2028108","ecp":"0","otd":null},{"prefix":"ст.","label":"ст. Абадан, Узбекистан","label_tail":"Узбекистан","value":"Абадан","gid":"0","lon":0,"lat":0,"exp":"2900882","ecp":"0","otd":null},{"prefix":"ст.","label":"ст. Абадан-1, Туркмения","label_tail":"Туркмения","value":"Абадан-1","gid":"0","lon":0,"lat":0,"exp":"6700266","ecp":"0","otd":null},{"prefix":"ст.","label":"ст. Абадан-2, Туркмения","label_tail":"Туркмения","value":"Абадан-2","gid":"0","lon":0,"lat":0,"exp":"6700267","ecp":"0","otd":null},{"prefix":"ст.","label":"ст. Абадзехская, Россия","label_tail":"Россия","value":"Абадзехская","gid":"0","lon":40.185277777778,"lat":44.4075,"exp":"2064137","ecp":"0","otd":null},{"prefix":"ст.","label":"ст. Абаевский, Россия","label_tail":"Россия","value":"Абаевский","gid":"0","lon":0,"lat":0,"exp":"2030571","ecp":"0","otd":null},{"prefix":"ст.","label":"ст. Абаза, Россия","label_tail":"Россия","value":"Абаза","gid":"0","lon":90.118888888889,"lat":52.655,"exp":"2038263","ecp":"0","otd":null},{"prefix":"ст.","label":"ст. Абазинка, Россия","label_tail":"Россия","value":"Абазинка","gid":"0","lon":42.026388888889,"lat":44.150277777778,"exp":"2064729","ecp":"0","otd":null},{"prefix":"ст.","label":"ст. Абазовка, Украина","label_tail":"Украина","value":"Абазовка","gid":"0","lon":34.354722222222,"lat":49.605277777778,"exp":"2204575","ecp":"0","otd":null},{"prefix":"ст.","label":"ст. Абаил, Казахстан","label_tail":"Казахстан","value":"Абаил","gid":"0","lon":0,"lat":0,"exp":"2700062","ecp":"0","otd":null},{"prefix":"ст.","label":"ст. Абакан, Россия","label_tail":"Россия","value":"Абакан","gid":"0","lon":91.440277777778,"lat":53.714444444444,"exp":"2038230","ecp":"0","otd":null},{"prefix":"ст.","label":"ст. Абаклия, Молдова\n","label_tail":"Молдова\n","value":"Абаклия","gid":"0","lon":0,"lat":0,"exp":"2300580","ecp":"0","otd":null},{"prefix":"ст.","label":"ст. Абакумовка, Россия","label_tail":"Россия","value":"Абакумовка","gid":"0","lon":96.185555555556,"lat":55.789166666667,"exp":"2038232","ecp":"0","otd":null},{"prefix":"ст.","label":"ст. Абалаково, Россия","label_tail":"Россия","value":"Абалаково","gid":"0","lon":92.638055555556,"lat":58.084166666667,"exp":"2038154","ecp":"0","otd":null},{"prefix":"ст.","label":"ст. Абамеликово, Украина","label_tail":"Украина","value":"Абамеликово","gid":"0","lon":0,"lat":0,"exp":"2208439","ecp":"0","otd":null},{"prefix":"ст.","label":"ст. Абаша, Грузия","label_tail":"Грузия","value":"Абаша","gid":"0","lon":0,"lat":0,"exp":"2800403","ecp":"0","otd":null},{"prefix":"ст.","label":"ст. Абганерово, Россия","label_tail":"Россия","value":"Абганерово","gid":"0","lon":44.110833333333,"lat":48.138888888889,"exp":"2020843","ecp":"0","otd":null},{"prefix":"ст.","label":"ст. Абдикеево, Россия","label_tail":"Россия","value":"Абдикеево","gid":"0","lon":51.713333333333,"lat":54.355,"exp":"2024778","ecp":"0","otd":null},{"prefix":"ст.","label":"ст. Абдулино, Россия","label_tail":"Россия","value":"Абдулино","gid":"0","lon":53.644444444444,"lat":53.682222222222,"exp":"2024670","ecp":"0","otd":null},{"prefix":"ст.","label":"ст. Абинская, Россия","label_tail":"Россия","value":"Абинская","gid":"0","lon":38.145833333333,"lat":44.881388888889,"exp":"2064181","ecp":"0","otd":null},{"prefix":"ст.","label":"ст. Аблык, Узбекистан","label_tail":"Узбекистан","value":"Аблык","gid":"0","lon":0,"lat":0,"exp":"2900236","ecp":"0","otd":null},{"prefix":"ст.","label":"ст. Абово, Россия","label_tail":"Россия","value":"Абово","gid":"0","lon":0,"lat":0,"exp":"2004043","ecp":"0","otd":null},{"prefix":"ст.","label":"ст. Абовян, Армения","label_tail":"Армения","value":"Абовян","gid":"0","lon":0,"lat":0,"exp":"5800488","ecp":"0","otd":null},{"prefix":"ст.","label":"ст. Абрамиха, Россия","label_tail":"Россия","value":"Абрамиха","gid":"0","lon":0,"lat":0,"exp":"2055006","ecp":"0","otd":null},{"prefix":"ст.","label":"ст. Абрамовка, Россия","label_tail":"Россия","value":"Абрамовка","gid":"0","lon":41.013611111111,"lat":51.184444444444,"exp":"2014527","ecp":"0","otd":null},{"prefix":"ст.","label":"ст. Абрамцево, Россия","label_tail":"Россия","value":"Абрамцево","gid":"0","lon":37.984722222222,"lat":56.233888888889,"exp":"2001042","ecp":"0","otd":null},{"prefix":"ст.","label":"ст. Абросимово, Россия","label_tail":"Россия","value":"Абросимово","gid":"0","lon":0,"lat":0,"exp":"2010255","ecp":"0","otd":null},{"prefix":"ст.","label":"ст. Абросово, Россия","label_tail":"Россия","value":"Абросово","gid":"0","lon":0,"lat":0,"exp":"2004617","ecp":"0","otd":null},{"prefix":"ст.","label":"ст. Абыла, Казахстан","label_tail":"Казахстан","value":"Абыла","gid":"0","lon":0,"lat":0,"exp":"2704911","ecp":"0","otd":null},{"prefix":"ст.","label":"ст. Авадан, Россия","label_tail":"Россия","value":"Авадан","gid":"0","lon":0,"lat":0,"exp":"2065241","ecp":"0","otd":null},{"prefix":"ст.","label":"ст. Аван, Россия","label_tail":"Россия","value":"Аван","gid":"0","lon":134.64861111111,"lat":47.481666666667,"exp":"2034628","ecp":"0","otd":null},{"prefix":"ст.","label":"ст. Авангард, Россия","label_tail":"Россия","value":"Авангард","gid":"0","lon":37.451111111111,"lat":54.961388888889,"exp":"2000166","ecp":"0","otd":null},{"prefix":"ст.","label":"ст. Августовский, Украина","label_tail":"Украина","value":"Августовский","gid":"0","lon":0,"lat":0,"exp":"2204551","ecp":"0","otd":null},{"prefix":"ст.","label":"ст. Авда, Россия","label_tail":"Россия","value":"Авда","gid":"0","lon":94.676111111111,"lat":55.755,"exp":"2038758","ecp":"0","otd":null},{"prefix":"ст.","label":"ст. Авдеевка, Украина","label_tail":"Украина","value":"Авдеевка","gid":"0","lon":31.673611111111,"lat":51.475,"exp":"2214039","ecp":"0","otd":null},{"prefix":"ст.","label":"ст. Авдон, Россия","label_tail":"Россия","value":"Авдон","gid":"0","lon":55.768888888889,"lat":54.65,"exp":"2024095","ecp":"0","otd":null},{"prefix":"ст.","label":"ст. Аверкино, Россия","label_tail":"Россия","value":"Аверкино","gid":"0","lon":51.928888888889,"lat":53.631944444444,"exp":"2024035","ecp":"0","otd":null},{"prefix":"ст.","label":"ст. Аверьяновка, Россия","label_tail":"Россия","value":"Аверьяновка","gid":"0","lon":88.293055555556,"lat":56.165,"exp":"2038129","ecp":"0","otd":null},{"prefix":"ст.","label":"ст. Авиационная, Россия","label_tail":"Россия","value":"Авиационная","gid":"0","lon":37.833888888889,"lat":55.421111111111,"exp":"2000505","ecp":"0","otd":null},{"prefix":"ст.","label":"ст. Авигнон, Франция","label_tail":"Франция","value":"Авигнон","gid":"0","lon":0,"lat":0,"exp":"8700402","ecp":"0","otd":null},{"prefix":"ст.","label":"ст. Авилово, Россия","label_tail":"Россия","value":"Авилово","gid":"0","lon":0,"lat":0,"exp":"2020752","ecp":"0","otd":null},{"prefix":"ст.","label":"ст. Аврора, Казахстан","label_tail":"Казахстан","value":"Аврора","gid":"0","lon":82.12,"lat":50.388333333333,"exp":"2700681","ecp":"0","otd":null},{"prefix":"ст.","label":"ст. Авсюнино, Россия","label_tail":"Россия","value":"Авсюнино","gid":"0","lon":39.114722222222,"lat":55.559722222222,"exp":"2001067","ecp":"0","otd":null},{"prefix":"ст.","label":"ст. Автобаза, Россия","label_tail":"Россия","value":"Автобаза","gid":"0","lon":59.063333333333,"lat":53.419444444444,"exp":"2034013","ecp":"0","otd":null},{"prefix":"ст.","label":"ст. Автобаза, Россия","label_tail":"Россия","value":"Автобаза","gid":"0","lon":59.063333333333,"lat":53.419444444444,"exp":"2045713","ecp":"0","otd":null},{"prefix":"ст.","label":"ст. Автозавод, Россия","label_tail":"Россия","value":"Автозавод","gid":"0","lon":48.332222222222,"lat":54.308055555556,"exp":"2061530","ecp":"0","otd":null},{"prefix":"ст.","label":"ст. Автоприбор, Россия","label_tail":"Россия","value":"Автоприбор","gid":"0","lon":40.452777777778,"lat":56.148055555556,"exp":"2060567","ecp":"0","otd":null},{"prefix":"ст.","label":"ст. Автостанция, Украина","label_tail":"Украина","value":"Автостанция","gid":"0","lon":0,"lat":0,"exp":"2204029","ecp":"0","otd":null},{"prefix":"ст.","label":"ст. Авчала, Грузия","label_tail":"Грузия","value":"Авчала","gid":"0","lon":0,"lat":0,"exp":"2800005","ecp":"0","otd":null},{"prefix":"ст.","label":"ст. Ага, Россия","label_tail":"Россия","value":"Ага","gid":"0","lon":115.16833333333,"lat":51.189166666667,"exp":"2050378","ecp":"0","otd":null},{"prefix":"ст.","label":"ст. Агара, Грузия","label_tail":"Грузия","value":"Агара","gid":"0","lon":0,"lat":0,"exp":"2800512","ecp":"0","otd":null},{"prefix":"ст.","label":"ст. Агарзя, Россия","label_tail":"Россия","value":"Агарзя","gid":"0","lon":56.506111111111,"lat":56.455833333333,"exp":"2060544","ecp":"0","otd":null},{"prefix":"ст.","label":"ст. Агбент, Азербайджан","label_tail":"Азербайджан","value":"Агбент","gid":"0","lon":0,"lat":0,"exp":"5700810","ecp":"0","otd":null},{"prefix":"ст.","label":"ст. Агдам, Азербайджан","label_tail":"Азербайджан","value":"Агдам","gid":"0","lon":0,"lat":0,"exp":"5700746","ecp":"0","otd":null},{"prefix":"ст.","label":"ст. Агин, Армения","label_tail":"Армения","value":"Агин","gid":"0","lon":0,"lat":0,"exp":"5800702","ecp":"0","otd":null},{"prefix":"ст.","label":"ст. Агириш, Россия","label_tail":"Россия","value":"Агириш","gid":"0","lon":63.000555555556,"lat":61.929166666667,"exp":"2030530","ecp":"0","otd":null},{"prefix":"ст.","label":"ст. Аглона, Латвия\n","label_tail":"Латвия\n","value":"Аглона","gid":"0","lon":27.010277777778,"lat":56.130833333333,"exp":"2500372","ecp":"0","otd":null},{"prefix":"ст.","label":"ст. Агролес, Россия","label_tail":"Россия","value":"Агролес","gid":"0","lon":37.347222222222,"lat":53.751944444444,"exp":"2000773","ecp":"0","otd":null},{"prefix":"ст.","label":"ст. Агроном, Россия","label_tail":"Россия","value":"Агроном","gid":"0","lon":39.1825,"lat":45.136111111111,"exp":"2064192","ecp":"0","otd":null},{"prefix":"ст.","label":"ст. Агрыз, Россия","label_tail":"Россия","value":"Агрыз","gid":"0","lon":53.013611111111,"lat":56.525555555556,"exp":"2060533","ecp":"0","otd":null},{"prefix":"ст.","label":"ст. Агудзера, Грузия","label_tail":"Грузия","value":"Агудзера","gid":"0","lon":0,"lat":0,"exp":"2800388","ecp":"0","otd":null},{"prefix":"ст.","label":"ст. Агул, Россия","label_tail":"Россия","value":"Агул","gid":"0","lon":95.830833333333,"lat":55.753611111111,"exp":"2038233","ecp":"0","otd":null},{"prefix":"ст.","label":"ст. Агур-Кархана, Грузия","label_tail":"Грузия","value":"Агур-Кархана","gid":"0","lon":0,"lat":0,"exp":"2800402","ecp":"0","otd":null},{"prefix":"ст.","label":"ст. Адабаш, Украина","label_tail":"Украина","value":"Адабаш","gid":"0","lon":0,"lat":0,"exp":"2208349","ecp":"0","otd":null},{"prefix":"ст.","label":"ст. Ададурово, Россия","label_tail":"Россия","value":"Ададурово","gid":"0","lon":0,"lat":0,"exp":"2020748","ecp":"0","otd":null},{"prefix":"ст.","label":"ст. Ададым, Россия","label_tail":"Россия","value":"Ададым","gid":"0","lon":90.298333333333,"lat":55.924444444444,"exp":"2038879","ecp":"0","otd":null},{"prefix":"ст.","label":"ст. Адамовское, Украина","label_tail":"Украина","value":"Адамовское","gid":"0","lon":34.181111111111,"lat":48.395277777778,"exp":"2210937","ecp":"0","otd":null},{"prefix":"ст.","label":"ст. Адамполь, Украина","label_tail":"Украина","value":"Адамполь","gid":"0","lon":27.657222222222,"lat":49.669166666667,"exp":"2200221","ecp":"0","otd":null},{"prefix":"ст.","label":"ст. Адарка, Россия","label_tail":"Россия","value":"Адарка","gid":"0","lon":132.91083333333,"lat":44.696111111111,"exp":"2034451","ecp":"0","otd":null},{"prefix":"ст.","label":"ст. Аджамети, Грузия","label_tail":"Грузия","value":"Аджамети","gid":"0","lon":0,"lat":0,"exp":"2800417","ecp":"0","otd":null},{"prefix":"ст.","label":"ст. Аджатар, Россия","label_tail":"Россия","value":"Аджатар","gid":"0","lon":60.665,"lat":54.997777777778,"exp":"2043667","ecp":"0","otd":null},{"prefix":"ст.","label":"ст. Аджибугут, Узбекистан","label_tail":"Узбекистан","value":"Аджибугут","gid":"0","lon":0,"lat":0,"exp":"2900302","ecp":"0","otd":null},{"prefix":"ст.","label":"ст. Аджуд, Румыния","label_tail":"Румыния","value":"Аджуд","gid":"0","lon":0,"lat":0,"exp":"5350811","ecp":"0","otd":null},{"prefix":"ст.","label":"ст. Адзюбжа, Грузия","label_tail":"Грузия","value":"Адзюбжа","gid":"0","lon":0,"lat":0,"exp":"2800391","ecp":"0","otd":null},{"prefix":"ст.","label":"ст. Адикаевка, Россия","label_tail":"Россия","value":"Адикаевка","gid":"0","lon":43.849166666667,"lat":53.236666666667,"exp":"2024578","ecp":"0","otd":null},{"prefix":"ст.","label":"ст. Адищево, Россия","label_tail":"Россия","value":"Адищево","gid":"0","lon":56.467777777778,"lat":58.103333333333,"exp":"2030611","ecp":"0","otd":null},{"prefix":"ст.","label":"ст. Адлер, Россия","label_tail":"Россия","value":"Адлер","gid":"0","lon":39.904722222222,"lat":43.446666666667,"exp":"2064150","ecp":"0","otd":null},{"prefix":"ст.","label":"ст. Адмиралтейская Слобода, Россия","label_tail":"Россия","value":"Адмиралтейская Слобода","gid":"0","lon":49.066111111111,"lat":55.801944444444,"exp":"2060062","ecp":"0","otd":null},{"prefix":"ст.","label":"ст. Адникан, Россия","label_tail":"Россия","value":"Адникан","gid":"0","lon":132.41166666667,"lat":50.9525,"exp":"2034403","ecp":"0","otd":null},{"prefix":"ст.","label":"ст. Адо-Тымово, Россия","label_tail":"Россия","value":"Адо-Тымово","gid":"0","lon":0,"lat":0,"exp":"2068454","ecp":"0","otd":null},{"prefix":"ст.","label":"ст. Адорф(Фогтл), Германия","label_tail":"Германия","value":"Адорф(Фогтл)","gid":"0","lon":0,"lat":0,"exp":"8008355","ecp":"0","otd":null},{"prefix":"ст.","label":"ст. Адриановка, Россия","label_tail":"Россия","value":"Адриановка","gid":"0","lon":114.52083333333,"lat":51.5725,"exp":"2050373","ecp":"0","otd":null},{"prefix":"ст.","label":"ст. Адуй, Россия","label_tail":"Россия","value":"Адуй","gid":"0","lon":61.047777777778,"lat":57.144444444444,"exp":"2030213","ecp":"0","otd":null},{"prefix":"ст.","label":"ст. Адыр, Казахстан","label_tail":"Казахстан","value":"Адыр","gid":"0","lon":0,"lat":0,"exp":"2708886","ecp":"0","otd":null},{"prefix":"ст.","label":"ст. Ажинияз, Узбекистан","label_tail":"Узбекистан","value":"Ажинияз","gid":"0","lon":0,"lat":0,"exp":"2900707","ecp":"0","otd":null},{"prefix":"ст.","label":"ст. Аза, Азербайджан","label_tail":"Азербайджан","value":"Аза","gid":"0","lon":0,"lat":0,"exp":"5700811","ecp":"0","otd":null},{"prefix":"ст.","label":"ст. Азадыкенд, Азербайджан","label_tail":"Азербайджан","value":"Азадыкенд","gid":"0","lon":0,"lat":0,"exp":"5700764","ecp":"0","otd":null},{"prefix":"ст.","label":"ст. Азанка, Россия","label_tail":"Россия","value":"Азанка","gid":"0","lon":64.787222222222,"lat":58.042222222222,"exp":"2030218","ecp":"0","otd":null},{"prefix":"ст.","label":"ст. Азарово, Россия","label_tail":"Россия","value":"Азарово","gid":"0","lon":36.244444444444,"lat":54.565555555556,"exp":"2000369","ecp":"0","otd":null},{"prefix":"ст.","label":"ст. Азат, Казахстан","label_tail":"Казахстан","value":"Азат","gid":"0","lon":71.528055555556,"lat":52.105833333333,"exp":"2708869","ecp":"0","otd":null},{"prefix":"ст.","label":"ст. Азатлык, Туркмения","label_tail":"Туркмения","value":"Азатлык","gid":"0","lon":0,"lat":0,"exp":"6700242","ecp":"0","otd":null},{"prefix":"ст.","label":"ст. Азей, Россия","label_tail":"Россия","value":"Азей","gid":"0","lon":100.76166666667,"lat":54.508888888889,"exp":"2054802","ecp":"0","otd":null},{"prefix":"ст.","label":"ст. Азиатская, Россия","label_tail":"Россия","value":"Азиатская","gid":"0","lon":59.528888888889,"lat":58.353333333333,"exp":"2030138","ecp":"0","otd":null},{"prefix":"ст.","label":"ст. Азино, Россия","label_tail":"Россия","value":"Азино","gid":"0","lon":52.705833333333,"lat":56.975555555556,"exp":"2060525","ecp":"0","otd":null},{"prefix":"ст.","label":"ст. Азобичи, Россия","label_tail":"Россия","value":"Азобичи","gid":"0","lon":0,"lat":0,"exp":"2000673","ecp":"0","otd":null},{"prefix":"ст.","label":"ст. Азов, Россия","label_tail":"Россия","value":"Азов","gid":"0","lon":39.4175,"lat":47.098611111111,"exp":"2064141","ecp":"0","otd":null},{"prefix":"ст.","label":"ст. Азовская, Украина","label_tail":"Украина","value":"Азовская","gid":"0","lon":0,"lat":0,"exp":"2210805","ecp":"0","otd":null},{"prefix":"ст.","label":"ст. Азотная, Россия","label_tail":"Россия","value":"Азотная","gid":"0","lon":0,"lat":0,"exp":"2001441","ecp":"0","otd":null},{"prefix":"ст.","label":"ст. Азям, Россия","label_tail":"Россия","value":"Азям","gid":"0","lon":59.469444444444,"lat":55.694444444444,"exp":"2040457","ecp":"0","otd":null},{"prefix":"ст.","label":"ст. Аиртау, Казахстан","label_tail":"Казахстан","value":"Аиртау","gid":"0","lon":0,"lat":0,"exp":"2700007","ecp":"0","otd":null},{"prefix":"ст.","label":"ст. Ай, Россия","label_tail":"Россия","value":"Ай","gid":"0","lon":59.531944444444,"lat":55.206666666667,"exp":"2040435","ecp":"0","otd":null},{"prefix":"ст.","label":"ст. Ай-Ягун, Россия","label_tail":"Россия","value":"Ай-Ягун","gid":"0","lon":0,"lat":0,"exp":"2031452","ecp":"0","otd":null},{"prefix":"ст.","label":"ст. Айамаа, Эстония","label_tail":"Эстония","value":"Айамаа","gid":"0","lon":0,"lat":0,"exp":"2600193","ecp":"0","otd":null},{"prefix":"ст.","label":"ст. Айвазовская, Украина","label_tail":"Украина","value":"Айвазовская","gid":"0","lon":0,"lat":0,"exp":"2210766","ecp":"0","otd":null},{"prefix":"ст.","label":"ст. Айвазовский, Россия","label_tail":"Россия","value":"Айвазовский","gid":"0","lon":20.57,"lat":54.673055555556,"exp":"2058354","ecp":"0","otd":null},{"prefix":"ст.","label":"ст. Айгаван, Армения","label_tail":"Армения","value":"Айгаван","gid":"0","lon":0,"lat":0,"exp":"5800712","ecp":"0","otd":null},{"prefix":"ст.","label":"ст. Айгир, Россия","label_tail":"Россия","value":"Айгир","gid":"0","lon":57.698333333333,"lat":54.124444444444,"exp":"2024960","ecp":"0","otd":null},{"prefix":"ст.","label":"ст. Айгыржал, Казахстан","label_tail":"Казахстан","value":"Айгыржал","gid":"0","lon":0,"lat":0,"exp":"2700735","ecp":"0","otd":null},{"prefix":"ст.","label":"ст. Айдарлы, Казахстан","label_tail":"Казахстан","value":"Айдарлы","gid":"0","lon":65.278055555556,"lat":52.181944444444,"exp":"2700019","ecp":"0","otd":null},{"prefix":"ст.","label":"ст. Айдынг, Туркмения","label_tail":"Туркмения","value":"Айдынг","gid":"0","lon":0,"lat":0,"exp":"6700905","ecp":"0","otd":null},{"prefix":"ст.","label":"ст. Айдырля, Россия","label_tail":"Россия","value":"Айдырля","gid":"0","lon":59.906111111111,"lat":51.967777777778,"exp":"2040383","ecp":"0","otd":null},{"prefix":"ст.","label":"ст. Айзкраукле, Латвия\n","label_tail":"Латвия\n","value":"Айзкраукле","gid":"0","lon":25.253888888889,"lat":56.601388888889,"exp":"2500352","ecp":"0","otd":null},{"prefix":"ст.","label":"ст. Айка, Россия","label_tail":"Россия","value":"Айка","gid":"0","lon":0,"lat":0,"exp":"2030457","ecp":"0","otd":null},{"prefix":"ст.","label":"ст. Айке, Казахстан","label_tail":"Казахстан","value":"Айке","gid":"0","lon":0,"lat":0,"exp":"2704714","ecp":"0","otd":null},{"prefix":"ст.","label":"ст. Айна-Булак, Казахстан","label_tail":"Казахстан","value":"Айна-Булак","gid":"0","lon":0,"lat":0,"exp":"2700794","ecp":"0","otd":null},{"prefix":"ст.","label":"ст. Айнак, Россия","label_tail":"Россия","value":"Айнак","gid":"0","lon":78.476944444444,"lat":53.1825,"exp":"2044733","ecp":"0","otd":null},{"prefix":"ст.","label":"ст. Айни, Таджикистан","label_tail":"Таджикистан","value":"Айни","gid":"0","lon":0,"lat":0,"exp":"6600874","ecp":"0","otd":null},{"prefix":"ст.","label":"ст. Айрите, Латвия\n","label_tail":"Латвия\n","value":"Айрите","gid":"0","lon":0,"lat":0,"exp":"2500283","ecp":"0","otd":null},{"prefix":"ст.","label":"ст. Айрум, Армения","label_tail":"Армения","value":"Айрум","gid":"0","lon":0,"lat":0,"exp":"5800507","ecp":"0","otd":null},{"prefix":"ст.","label":"ст. Айрыктас, Казахстан","label_tail":"Казахстан","value":"Айрыктас","gid":"0","lon":0,"lat":0,"exp":"2704855","ecp":"0","otd":null},{"prefix":"ст.","label":"ст. Айрытам, Узбекистан","label_tail":"Узбекистан","value":"Айрытам","gid":"0","lon":0,"lat":0,"exp":"2900788","ecp":"0","otd":null},{"prefix":"ст.","label":"ст. Айса, Казахстан","label_tail":"Казахстан","value":"Айса","gid":"0","lon":0,"lat":0,"exp":"2708923","ecp":"0","otd":null},{"prefix":"ст.","label":"ст. Айсары, Казахстан","label_tail":"Казахстан","value":"Айсары","gid":"0","lon":0,"lat":0,"exp":"2709973","ecp":"0","otd":null},{"prefix":"ст.","label":"ст. Айтек, Казахстан","label_tail":"Казахстан","value":"Айтек","gid":"0","lon":0,"lat":0,"exp":"2704919","ecp":"0","otd":null},{"prefix":"ст.","label":"ст. Айтеке Би, Казахстан","label_tail":"Казахстан","value":"Айтеке Би","gid":"0","lon":0,"lat":0,"exp":"2704711","ecp":"0","otd":null},{"prefix":"ст.","label":"ст. Айюва, Россия","label_tail":"Россия","value":"Айюва","gid":"0","lon":0,"lat":0,"exp":"2011207","ecp":"0","otd":null},{"prefix":"ст.","label":"ст. Ак Тобе, Узбекистан","label_tail":"Узбекистан","value":"Ак Тобе","gid":"0","lon":0,"lat":0,"exp":"2900689","ecp":"0","otd":null},{"prefix":"ст.","label":"ст. Ак-Булак, Казахстан","label_tail":"Казахстан","value":"Ак-Булак","gid":"0","lon":0,"lat":0,"exp":"2704850","ecp":"0","otd":null},{"prefix":"ст.","label":"ст. Ак-Булат, Казахстан","label_tail":"Казахстан","value":"Ак-Булат","gid":"0","lon":0,"lat":0,"exp":"2700744","ecp":"0","otd":null},{"prefix":"ст.","label":"ст. Ак-Кистау, Казахстан","label_tail":"Казахстан","value":"Ак-Кистау","gid":"0","lon":0,"lat":0,"exp":"2704793","ecp":"0","otd":null},{"prefix":"ст.","label":"ст. Ак-Куль, Казахстан","label_tail":"Казахстан","value":"Ак-Куль","gid":"0","lon":0,"lat":0,"exp":"2708840","ecp":"0","otd":null},{"prefix":"ст.","label":"ст. Ак-Узяк, Казахстан","label_tail":"Казахстан","value":"Ак-Узяк","gid":"0","lon":0,"lat":0,"exp":"2700774","ecp":"0","otd":null},{"prefix":"ст.","label":"ст. Ак-Чулак, Казахстан","label_tail":"Казахстан","value":"Ак-Чулак","gid":"0","lon":0,"lat":0,"exp":"2700848","ecp":"0","otd":null},{"prefix":"ст.","label":"ст. Академгородок, Украина","label_tail":"Украина","value":"Академгородок","gid":"0","lon":0,"lat":0,"exp":"2201195","ecp":"0","otd":null},{"prefix":"ст.","label":"ст. Академическая, Россия","label_tail":"Россия","value":"Академическая","gid":"0","lon":30.395277777778,"lat":60.012777777778,"exp":"2004457","ecp":"0","otd":null},{"prefix":"ст.","label":"ст. Академическая, Россия","label_tail":"Россия","value":"Академическая","gid":"0","lon":30.395277777778,"lat":60.012777777778,"exp":"2054892","ecp":"0","otd":null},{"prefix":"ст.","label":"ст. Акадыр, Казахстан","label_tail":"Казахстан","value":"Акадыр","gid":"0","lon":0,"lat":0,"exp":"2708921","ecp":"0","otd":null},{"prefix":"ст.","label":"ст. Акалтын, Узбекистан","label_tail":"Узбекистан","value":"Акалтын","gid":"0","lon":0,"lat":0,"exp":"2900163","ecp":"0","otd":null},{"prefix":"ст.","label":"ст. Акара, Азербайджан","label_tail":"Азербайджан","value":"Акара","gid":"0","lon":0,"lat":0,"exp":"5700812","ecp":"0","otd":null},{"prefix":"ст.","label":"ст. Акармара, Грузия","label_tail":"Грузия","value":"Акармара","gid":"0","lon":0,"lat":0,"exp":"2800393","ecp":"0","otd":null},{"prefix":"ст.","label":"ст. Акарп, Швеция","label_tail":"Швеция","value":"Акарп","gid":"0","lon":0,"lat":0,"exp":"7400601","ecp":"0","otd":null},{"prefix":"ст.","label":"ст. Акбалык, Казахстан","label_tail":"Казахстан","value":"Акбалык","gid":"0","lon":79.209722222222,"lat":46.565277777778,"exp":"2700766","ecp":"0","otd":null},{"prefix":"ст.","label":"ст. Акбарабад, Узбекистан","label_tail":"Узбекистан","value":"Акбарабад","gid":"0","lon":0,"lat":0,"exp":"2900702","ecp":"0","otd":null},{"prefix":"ст.","label":"ст. Акбаш, Россия","label_tail":"Россия","value":"Акбаш","gid":"0","lon":52.605555555556,"lat":54.418611111111,"exp":"2024707","ecp":"0","otd":null},{"prefix":"ст.","label":"ст. Акбобек, Казахстан","label_tail":"Казахстан","value":"Акбобек","gid":"0","lon":0,"lat":0,"exp":"2705883","ecp":"0","otd":null},{"prefix":"ст.","label":"ст. Акдала, Казахстан","label_tail":"Казахстан","value":"Акдала","gid":"0","lon":68.904166666667,"lat":42.467222222222,"exp":"2700884","ecp":"0","otd":null},{"prefix":"ст.","label":"ст. Акджагуйма, Туркмения","label_tail":"Туркмения","value":"Акджагуйма","gid":"0","lon":0,"lat":0,"exp":"6700287","ecp":"0","otd":null},{"prefix":"ст.","label":"ст. Акен(Элбе), Германия","label_tail":"Германия","value":"Акен(Элбе)","gid":"0","lon":0,"lat":0,"exp":"8011001","ecp":"0","otd":null},{"prefix":"ст.","label":"ст. Акеспе, Казахстан","label_tail":"Казахстан","value":"Акеспе","gid":"0","lon":0,"lat":0,"exp":"2705802","ecp":"0","otd":null},{"prefix":"ст.","label":"ст. Акжайдак, Казахстан","label_tail":"Казахстан","value":"Акжайдак","gid":"0","lon":0,"lat":0,"exp":"2708924","ecp":"0","otd":null},{"prefix":"ст.","label":"ст. Акжайык, Казахстан","label_tail":"Казахстан","value":"Акжайык","gid":"0","lon":51.658888888889,"lat":47.880833333333,"exp":"2704795","ecp":"0","otd":null},{"prefix":"ст.","label":"ст. Акжар, Казахстан","label_tail":"Казахстан","value":"Акжар","gid":"0","lon":77.183333333333,"lat":46,"exp":"2700834","ecp":"0","otd":null},{"prefix":"ст.","label":"ст. Акжар, Казахстан","label_tail":"Казахстан","value":"Акжар","gid":"0","lon":77.183333333333,"lat":46,"exp":"2705819","ecp":"0","otd":null},{"prefix":"ст.","label":"ст. Акжигит, Казахстан","label_tail":"Казахстан","value":"Акжигит","gid":"0","lon":55.755833333333,"lat":45.037777777778,"exp":"2700112","ecp":"0","otd":null},{"prefix":"ст.","label":"ст. Акимо-Анненка, Россия","label_tail":"Россия","value":"Акимо-Анненка","gid":"0","lon":88.803888888889,"lat":56.0775,"exp":"2038088","ecp":"0","otd":null},{"prefix":"ст.","label":"ст. Акимовка, Украина","label_tail":"Украина","value":"Акимовка","gid":"0","lon":29.526111111111,"lat":49.281666666667,"exp":"2210675","ecp":"0","otd":null},{"prefix":"ст.","label":"ст. Аккавак, Узбекистан","label_tail":"Узбекистан","value":"Аккавак","gid":"0","lon":0,"lat":0,"exp":"2900143","ecp":"0","otd":null},{"prefix":"ст.","label":"ст. Аккаржа, Украина","label_tail":"Украина","value":"Аккаржа","gid":"0","lon":0,"lat":0,"exp":"2208483","ecp":"0","otd":null},{"prefix":"ст.","label":"ст. Аккахарью, Россия","label_tail":"Россия","value":"Аккахарью","gid":"0","lon":29.872777777778,"lat":61.461666666667,"exp":"2004259","ecp":"0","otd":null},{"prefix":"ст.","label":"ст. Аккемер, Казахстан","label_tail":"Казахстан","value":"Аккемер","gid":"0","lon":54.865277777778,"lat":49.665277777778,"exp":"2704848","ecp":"0","otd":null},{"prefix":"ст.","label":"ст. Аккудык, Казахстан","label_tail":"Казахстан","value":"Аккудык","gid":"0","lon":0,"lat":0,"exp":"2708911","ecp":"0","otd":null},{"prefix":"ст.","label":"ст. Аккудык, Казахстан","label_tail":"Казахстан","value":"Аккудык","gid":"0","lon":0,"lat":0,"exp":"2704707","ecp":"0","otd":null},{"prefix":"ст.","label":"ст. Аккум, Казахстан","label_tail":"Казахстан","value":"Аккум","gid":"0","lon":67.883333333333,"lat":42.943055555556,"exp":"2704942","ecp":"0","otd":null},{"prefix":"ст.","label":"ст. Акмая, Казахстан","label_tail":"Казахстан","value":"Акмая","gid":"0","lon":66.814444444444,"lat":44.169444444444,"exp":"2704936","ecp":"0","otd":null},{"prefix":"ст.","label":"ст. Акмяне, Литва","label_tail":"Литва","value":"Акмяне","gid":"0","lon":22.754722222222,"lat":56.246111111111,"exp":"2401397","ecp":"0","otd":null},{"prefix":"ст.","label":"ст. Акнан, Казахстан","label_tail":"Казахстан","value":"Акнан","gid":"0","lon":0,"lat":0,"exp":"2700907","ecp":"0","otd":null},{"prefix":"ст.","label":"ст. Акон'Ярви, Россия","label_tail":"Россия","value":"Акон'Ярви","gid":"0","lon":0,"lat":0,"exp":"2004288","ecp":"0","otd":null},{"prefix":"ст.","label":"ст. Акри, Россия","label_tail":"Россия","value":"Акри","gid":"0","lon":38.118888888889,"lat":54.873611111111,"exp":"2001138","ecp":"0","otd":null},{"prefix":"ст.","label":"ст. Акс, Венгрия","label_tail":"Венгрия","value":"Акс","gid":"0","lon":0,"lat":0,"exp":"5500010","ecp":"0","otd":null},{"prefix":"ст.","label":"ст. Аксай, Россия","label_tail":"Россия","value":"Аксай","gid":"0","lon":39.876388888889,"lat":47.253055555556,"exp":"2064640","ecp":"0","otd":null},{"prefix":"ст.","label":"ст. Аксака, Россия","label_tail":"Россия","value":"Аксака","gid":"0","lon":138.48333333333,"lat":50.281388888889,"exp":"2035634","ecp":"0","otd":null},{"prefix":"ст.","label":"ст. Аксаково, Россия","label_tail":"Россия","value":"Аксаково","gid":"0","lon":54.148888888889,"lat":54.0175,"exp":"2024680","ecp":"0","otd":null},{"prefix":"ст.","label":"ст. Аксаматово, Россия","label_tail":"Россия","value":"Аксаматово","gid":"0","lon":47.801944444444,"lat":56.629166666667,"exp":"2060595","ecp":"0","otd":null},{"prefix":"ст.","label":"ст. Аксарайская, Россия","label_tail":"Россия","value":"Аксарайская","gid":"0","lon":48.005555555556,"lat":46.795,"exp":"2020925","ecp":"0","otd":null},{"prefix":"ст.","label":"ст. Аксарайская 2, Россия","label_tail":"Россия","value":"Аксарайская 2","gid":"0","lon":48.057777777778,"lat":46.7625,"exp":"2020071","ecp":"0","otd":null},{"prefix":"ст.","label":"ст. Аксариха, Россия","label_tail":"Россия","value":"Аксариха","gid":"0","lon":62.970277777778,"lat":56.905555555556,"exp":"2030245","ecp":"0","otd":null},{"prefix":"ст.","label":"ст. Аксенгер, Казахстан","label_tail":"Казахстан","value":"Аксенгер","gid":"0","lon":0,"lat":0,"exp":"2700732","ecp":"0","otd":null},{"prefix":"ст.","label":"ст. Аксениха, Россия","label_tail":"Россия","value":"Аксениха","gid":"0","lon":0,"lat":0,"exp":"2044741","ecp":"0","otd":null},{"prefix":"ст.","label":"ст. Аксеново, Россия","label_tail":"Россия","value":"Аксеново","gid":"0","lon":40.994444444444,"lat":58.838055555556,"exp":"2024656","ecp":"0","otd":null},{"prefix":"ст.","label":"ст. Акстафа, Азербайджан","label_tail":"Азербайджан","value":"Акстафа","gid":"0","lon":0,"lat":0,"exp":"5700790","ecp":"0","otd":null},{"prefix":"ст.","label":"ст. Аксу, Казахстан","label_tail":"Казахстан","value":"Аксу","gid":"0","lon":76.930833333333,"lat":52.041111111111,"exp":"2708109","ecp":"0","otd":null},{"prefix":"ст.","label":"ст. Аксу 1, Казахстан","label_tail":"Казахстан","value":"Аксу 1","gid":"0","lon":0,"lat":0,"exp":"2709928","ecp":"0","otd":null},{"prefix":"ст.","label":"ст. Аксу 2, Казахстан","label_tail":"Казахстан","value":"Аксу 2","gid":"0","lon":0,"lat":0,"exp":"2709983","ecp":"0","otd":null},{"prefix":"ст.","label":"ст. Аксуат, Казахстан","label_tail":"Казахстан","value":"Аксуат","gid":"0","lon":82.806388888889,"lat":47.762777777778,"exp":"2708845","ecp":"0","otd":null},{"prefix":"ст.","label":"ст. Аксув, Туркмения","label_tail":"Туркмения","value":"Аксув","gid":"0","lon":0,"lat":0,"exp":"6700272","ecp":"0","otd":null},{"prefix":"ст.","label":"ст. Аксютовка, Украина","label_tail":"Украина","value":"Аксютовка","gid":"0","lon":36.204722222222,"lat":49.808333333333,"exp":"2204738","ecp":"0","otd":null},{"prefix":"ст.","label":"ст. Актай, Казахстан","label_tail":"Казахстан","value":"Актай","gid":"0","lon":0,"lat":0,"exp":"2708962","ecp":"0","otd":null},{"prefix":"ст.","label":"ст. Актай, Россия","label_tail":"Россия","value":"Актай","gid":"0","lon":0,"lat":0,"exp":"2030514","ecp":"0","otd":null},{"prefix":"ст.","label":"ст. Актайлак, Казахстан","label_tail":"Казахстан","value":"Актайлак","gid":"0","lon":78.2,"lat":51.033333333333,"exp":"2704922","ecp":"0","otd":null},{"prefix":"ст.","label":"ст. Актас, Казахстан","label_tail":"Казахстан","value":"Актас","gid":"0","lon":72.955833333333,"lat":49.779166666667,"exp":"2700886","ecp":"0","otd":null},{"prefix":"ст.","label":"ст. Актасты, Казахстан","label_tail":"Казахстан","value":"Актасты","gid":"0","lon":76.657222222222,"lat":50.153888888889,"exp":"2708991","ecp":"0","otd":null},{"prefix":"ст.","label":"ст. Актау, Казахстан","label_tail":"Казахстан","value":"Актау","gid":"0","lon":73.063333333333,"lat":50.223055555556,"exp":"2708905","ecp":"0","otd":null},{"prefix":"ст.","label":"ст. Актаутас, Казахстан","label_tail":"Казахстан","value":"Актаутас","gid":"0","lon":0,"lat":0,"exp":"2700855","ecp":"0","otd":null},{"prefix":"ст.","label":"ст. Акташ, Россия","label_tail":"Россия","value":"Акташ","gid":"0","lon":52.111388888889,"lat":54.994166666667,"exp":"2024875","ecp":"0","otd":null},{"prefix":"ст.","label":"ст. Актобе, Казахстан","label_tail":"Казахстан","value":"Актобе","gid":"0","lon":57.2125,"lat":50.279722222222,"exp":"2704600","ecp":"0","otd":null},{"prefix":"ст.","label":"ст. Актогай, Казахстан","label_tail":"Казахстан","value":"Актогай","gid":"0","lon":79.675555555556,"lat":46.952222222222,"exp":"2700670","ecp":"0","otd":null},{"prefix":"ст.","label":"ст. Актогай Восточный, Казахстан","label_tail":"Казахстан","value":"Актогай Восточный","gid":"0","lon":0,"lat":0,"exp":"2700102","ecp":"0","otd":null},{"prefix":"ст.","label":"ст. Аку, Россия","label_tail":"Россия","value":"Аку","gid":"0","lon":0,"lat":0,"exp":"2054139","ecp":"0","otd":null},{"prefix":"ст.","label":"ст. Акуаскиа, Грузия","label_tail":"Грузия","value":"Акуаскиа","gid":"0","lon":0,"lat":0,"exp":"2800394","ecp":"0","otd":null},{"prefix":"ст.","label":"ст. Акуличи, Россия","label_tail":"Россия","value":"Акуличи","gid":"0","lon":0,"lat":0,"exp":"2000579","ecp":"0","otd":null},{"prefix":"ст.","label":"ст. Акулово, Россия","label_tail":"Россия","value":"Акулово","gid":"0","lon":36.689166666667,"lat":55.502777777778,"exp":"2001118","ecp":"0","otd":null},{"prefix":"ст.","label":"ст. Акульшет, Россия","label_tail":"Россия","value":"Акульшет","gid":"0","lon":0,"lat":0,"exp":"2054753","ecp":"0","otd":null},{"prefix":"ст.","label":"ст. Акур, Россия","label_tail":"Россия","value":"Акур","gid":"0","lon":140.09111111111,"lat":49.821666666667,"exp":"2034452","ecp":"0","otd":null},{"prefix":"ст.","label":"ст. Акура, Грузия","label_tail":"Грузия","value":"Акура","gid":"0","lon":0,"lat":0,"exp":"2800798","ecp":"0","otd":null},{"prefix":"ст.","label":"ст. Акча, Узбекистан","label_tail":"Узбекистан","value":"Акча","gid":"0","lon":0,"lat":0,"exp":"2900186","ecp":"0","otd":null},{"prefix":"ст.","label":"ст. Акчуринский, Россия","label_tail":"Россия","value":"Акчуринский","gid":"0","lon":0,"lat":0,"exp":"2024016","ecp":"0","otd":null},{"prefix":"ст.","label":"ст. Акшагыл, Казахстан","label_tail":"Казахстан","value":"Акшагыл","gid":"0","lon":0,"lat":0,"exp":"2708926","ecp":"0","otd":null},{"prefix":"ст.","label":"ст. Акшокат, Казахстан","label_tail":"Казахстан","value":"Акшокат","gid":"0","lon":0,"lat":0,"exp":"2700906","ecp":"0","otd":null},{"prefix":"ст.","label":"ст. Акыр-Тюбе, Казахстан","label_tail":"Казахстан","value":"Акыр-Тюбе","gid":"0","lon":0,"lat":0,"exp":"2700847","ecp":"0","otd":null},{"prefix":"ст.","label":"ст. Акьяка, Турция","label_tail":"Турция","value":"Акьяка","gid":"0","lon":0,"lat":0,"exp":"7500123","ecp":"0","otd":null},{"prefix":"ст.","label":"ст. Ала-Айгир, Казахстан","label_tail":"Казахстан","value":"Ала-Айгир","gid":"0","lon":0,"lat":0,"exp":"2700821","ecp":"0","otd":null},{"prefix":"ст.","label":"ст. Ала-Тау, Россия","label_tail":"Россия","value":"Ала-Тау","gid":"0","lon":89.608888888889,"lat":53.457222222222,"exp":"2038267","ecp":"0","otd":null},{"prefix":"ст.","label":"ст. Алабас, Казахстан","label_tail":"Казахстан","value":"Алабас","gid":"0","lon":0,"lat":0,"exp":"2704858","ecp":"0","otd":null},{"prefix":"ст.","label":"ст. Алабашлы, Азербайджан","label_tail":"Азербайджан","value":"Алабашлы","gid":"0","lon":0,"lat":0,"exp":"5700738","ecp":"0","otd":null},{"prefix":"ст.","label":"ст. Алабино, Россия","label_tail":"Россия","value":"Алабино","gid":"0","lon":36.991666666667,"lat":55.528611111111,"exp":"2001063","ecp":"0","otd":null},{"prefix":"ст.","label":"ст. Алабушево, Россия","label_tail":"Россия","value":"Алабушево","gid":"0","lon":37.140555555556,"lat":56.008055555556,"exp":"2005280","ecp":"0","otd":null},{"prefix":"ст.","label":"ст. Алаверди, Армения","label_tail":"Армения","value":"Алаверди","gid":"0","lon":0,"lat":0,"exp":"5800513","ecp":"0","otd":null},{"prefix":"ст.","label":"ст. Аладаш, Россия","label_tail":"Россия","value":"Аладаш","gid":"0","lon":0,"lat":0,"exp":"2065240","ecp":"0","otd":null},{"prefix":"ст.","label":"ст. Алажиде, Казахстан","label_tail":"Казахстан","value":"Алажиде","gid":"0","lon":0,"lat":0,"exp":"2700777","ecp":"0","otd":null},{"prefix":"ст.","label":"ст. Алакуль, Россия","label_tail":"Россия","value":"Алакуль","gid":"0","lon":62.518333333333,"lat":55.208055555556,"exp":"2040495","ecp":"0","otd":null},{"prefix":"ст.","label":"ст. Алакуртти, Россия","label_tail":"Россия","value":"Алакуртти","gid":"0","lon":30.341666666667,"lat":66.963333333333,"exp":"2005272","ecp":"0","otd":null},{"prefix":"ст.","label":"ст. Алалампи, Россия","label_tail":"Россия","value":"Алалампи","gid":"0","lon":30.832777777778,"lat":61.925277777778,"exp":"2004272","ecp":"0","otd":null},{"prefix":"ст.","label":"ст. Аламбай, Россия","label_tail":"Россия","value":"Аламбай","gid":"0","lon":85.889444444444,"lat":54.026388888889,"exp":"2044817","ecp":"0","otd":null},{"prefix":"ст.","label":"ст. Аламбаш, Россия","label_tail":"Россия","value":"Аламбаш","gid":"0","lon":0,"lat":0,"exp":"2010996","ecp":"0","otd":null},{"prefix":"ст.","label":"ст. Аланап, Россия","label_tail":"Россия","value":"Аланап","gid":"0","lon":132.01611111111,"lat":49.952222222222,"exp":"2048586","ecp":"0","otd":null},{"prefix":"ст.","label":"ст. Аланда, Латвия\n","label_tail":"Латвия\n","value":"Аланда","gid":"0","lon":0,"lat":0,"exp":"2500853","ecp":"0","otd":null},{"prefix":"ст.","label":"ст. Алань, Россия","label_tail":"Россия","value":"Алань","gid":"0","lon":51.831111111111,"lat":55.584722222222,"exp":"2024876","ecp":"0","otd":null},{"prefix":"ст.","label":"ст. Алапаевск, Россия","label_tail":"Россия","value":"Алапаевск","gid":"0","lon":61.685277777778,"lat":57.856666666667,"exp":"2030160","ecp":"0","otd":null},{"prefix":"ст.","label":"ст. Алат, Узбекистан","label_tail":"Узбекистан","value":"Алат","gid":"0","lon":0,"lat":0,"exp":"2900831","ecp":"0","otd":null},{"prefix":"ст.","label":"ст. Алатту, Россия","label_tail":"Россия","value":"Алатту","gid":"0","lon":31.054722222222,"lat":61.885277777778,"exp":"2004274","ecp":"0","otd":null},{"prefix":"ст.","label":"ст. Алатун, Узбекистан","label_tail":"Узбекистан","value":"Алатун","gid":"0","lon":0,"lat":0,"exp":"2900789","ecp":"0","otd":null},{"prefix":"ст.","label":"ст. Алатырь, Россия","label_tail":"Россия","value":"Алатырь","gid":"0","lon":46.578055555556,"lat":54.849722222222,"exp":"2060335","ecp":"0","otd":null},{"prefix":"ст.","label":"ст. Алашанькоу, Китай","label_tail":"Китай","value":"Алашанькоу","gid":"0","lon":0,"lat":0,"exp":"3300019","ecp":"0","otd":null},{"prefix":"ст.","label":"ст. Алба Юлия, Румыния","label_tail":"Румыния","value":"Алба Юлия","gid":"0","lon":0,"lat":0,"exp":"5323038","ecp":"0","otd":null},{"prefix":"ст.","label":"ст. Албаба, Россия","label_tail":"Россия","value":"Албаба","gid":"0","lon":48.338055555556,"lat":55.613611111111,"exp":"2060605","ecp":"0","otd":null},{"prefix":"ст.","label":"ст. Албаши, Россия","label_tail":"Россия","value":"Албаши","gid":"0","lon":38.937222222222,"lat":46.326944444444,"exp":"2064148","ecp":"0","otd":null},{"prefix":"ст.","label":"ст. Алга, Казахстан","label_tail":"Казахстан","value":"Алга","gid":"0","lon":76.138611111111,"lat":52.943611111111,"exp":"2704845","ecp":"0","otd":null},{"prefix":"ст.","label":"ст. Алгабас, Казахстан","label_tail":"Казахстан","value":"Алгабас","gid":"0","lon":76.916666666667,"lat":49.85,"exp":"2704966","ecp":"0","otd":null},{"prefix":"ст.","label":"ст. Алгаин, Россия","label_tail":"Россия","value":"Алгаин","gid":"0","lon":87.542222222222,"lat":53.014444444444,"exp":"2028119","ecp":"0","otd":null},{"prefix":"ст.","label":"ст. Алгашет, Россия","label_tail":"Россия","value":"Алгашет","gid":"0","lon":98.622777777778,"lat":55.465833333333,"exp":"2054304","ecp":"0","otd":null},{"prefix":"ст.","label":"ст. Алдан, Россия","label_tail":"Россия","value":"Алдан","gid":"0","lon":125.405,"lat":58.598055555556,"exp":"2018000","ecp":"0","otd":null},{"prefix":"ст.","label":"ст. Алдарово, Россия","label_tail":"Россия","value":"Алдарово","gid":"0","lon":54.689722222222,"lat":53.916944444444,"exp":"2024072","ecp":"0","otd":null},{"prefix":"ст.","label":"ст. Алды, Россия","label_tail":"Россия","value":"Алды","gid":"0","lon":45.627777777778,"lat":43.287777777778,"exp":"2064753","ecp":"0","otd":null},{"prefix":"ст.","label":"ст. Алебастровая, Украина","label_tail":"Украина","value":"Алебастровая","gid":"0","lon":0,"lat":0,"exp":"2214097","ecp":"0","otd":null},{"prefix":"ст.","label":"ст. Алебастрово, Россия","label_tail":"Россия","value":"Алебастрово","gid":"0","lon":56.832222222222,"lat":58.040555555556,"exp":"2031268","ecp":"0","otd":null},{"prefix":"ст.","label":"ст. Алейская, Россия","label_tail":"Россия","value":"Алейская","gid":"0","lon":82.788888888889,"lat":52.495277777778,"exp":"2044680","ecp":"0","otd":null},{"prefix":"ст.","label":"ст. Александрино, Россия","label_tail":"Россия","value":"Александрино","gid":"0","lon":34.324166666667,"lat":55.505555555556,"exp":"2001446","ecp":"0","otd":null},{"prefix":"ст.","label":"ст. Александрия, Украина","label_tail":"Украина","value":"Александрия","gid":"0","lon":24.846666666667,"lat":51.501666666667,"exp":"2208380","ecp":"0","otd":null},{"prefix":"ст.","label":"ст. Александрия-Ровенская, Украина","label_tail":"Украина","value":"Александрия-Ровенская","gid":"0","lon":0,"lat":0,"exp":"2218524","ecp":"0","otd":null},{"prefix":"ст.","label":"ст. Александро-Невская, Россия","label_tail":"Россия","value":"Александро-Невская","gid":"0","lon":40.211111111111,"lat":53.48,"exp":"2014412","ecp":"0","otd":null},{"prefix":"ст.","label":"ст. Александров, Россия","label_tail":"Россия","value":"Александров","gid":"0","lon":38.703055555556,"lat":56.397222222222,"exp":"2000921","ecp":"0","otd":null},{"prefix":"ст.","label":"ст. Александров 1, Россия","label_tail":"Россия","value":"Александров 1","gid":"0","lon":0,"lat":0,"exp":"2000920","ecp":"0","otd":null},{"prefix":"ст.","label":"ст. Александров 2, Россия","label_tail":"Россия","value":"Александров 2","gid":"0","lon":0,"lat":0,"exp":"2000019","ecp":"0","otd":null},{"prefix":"ст.","label":"ст. Александров Гай, Россия","label_tail":"Россия","value":"Александров Гай","gid":"0","lon":48.535555555556,"lat":50.133888888889,"exp":"2020906","ecp":"0","otd":null},{"prefix":"ст.","label":"ст. Александров Куявский, Польша","label_tail":"Польша","value":"Александров Куявский","gid":"0","lon":0,"lat":0,"exp":"5100001","ecp":"0","otd":null},{"prefix":"ст.","label":"ст. Александровка, Россия","label_tail":"Россия","value":"Александровка","gid":"0","lon":40.014166666667,"lat":47.327222222222,"exp":"2020387","ecp":"0","otd":null},{"prefix":"ст.","label":"ст. Александровка, Россия","label_tail":"Россия","value":"Александровка","gid":"0","lon":40.014166666667,"lat":47.327222222222,"exp":"2038073","ecp":"0","otd":null},{"prefix":"ст.","label":"ст. Александровка, Россия","label_tail":"Россия","value":"Александровка","gid":"0","lon":40.014166666667,"lat":47.327222222222,"exp":"2000734","ecp":"0","otd":null},{"prefix":"ст.","label":"ст. Александровка, Россия","label_tail":"Россия","value":"Александровка","gid":"0","lon":40.014166666667,"lat":47.327222222222,"exp":"2064909","ecp":"0","otd":null},{"prefix":"ст.","label":"ст. Александровка, Россия","label_tail":"Россия","value":"Александровка","gid":"0","lon":40.014166666667,"lat":47.327222222222,"exp":"2051412","ecp":"0","otd":null},{"prefix":"ст.","label":"ст. Александровка, Украина","label_tail":"Украина","value":"Александровка","gid":"0","lon":23.506388888889,"lat":48.136111111111,"exp":"2209384","ecp":"0","otd":null},{"prefix":"ст.","label":"ст. Александровка, Украина","label_tail":"Украина","value":"Александровка","gid":"0","lon":23.506388888889,"lat":48.136111111111,"exp":"2210255","ecp":"0","otd":null},{"prefix":"ст.","label":"ст. Александровка, Украина","label_tail":"Украина","value":"Александровка","gid":"0","lon":23.506388888889,"lat":48.136111111111,"exp":"2204632","ecp":"0","otd":null},{"prefix":"г.","label":"г. Брест, Брестская обл., Беларусь","label_tail":"Брестская обл., Беларусь","value":"Брест","gid":"17","lon":52.103333333333,"lat":23.715555555556,"exp":"2100200","ecp":"130007","otd":"003"},{"prefix":"ст.","label":"ст. Брест-Центральный, г. Брест, Брестская обл., Беларусь","label_tail":"г. Брест, Брестская обл., Беларусь","value":"Брест-Центральный","gid":"17","lon":52.101111111111,"lat":23.680555555556,"exp":"2100035","ecp":"130007","otd":"003"},{"prefix":"ст.","label":"ст. Брест-Восточный, г. Брест, Брестская обл., Беларусь","label_tail":"г. Брест, Брестская обл., Беларусь","value":"Брест-Восточный","gid":"624","lon":52.110277777778,"lat":23.7275,"exp":"2100188","ecp":"130204","otd":"003"},{"prefix":"ст.","label":"ст. Брест-Полесский, г. Брест, Брестская обл., Беларусь","label_tail":"г. Брест, Брестская обл., Беларусь","value":"Брест-Полесский","gid":"914","lon":52.094722222222,"lat":23.71,"exp":"2100516","ecp":"130308","otd":"003"},{"prefix":"ст.","label":"ст. Брест-Северный, г. Брест, Брестская обл., Беларусь","label_tail":"г. Брест, Брестская обл., Беларусь","value":"Брест-Северный","gid":"623","lon":52.111666666667,"lat":23.654722222222,"exp":"2100670","ecp":"130100","otd":"003"},{"prefix":"ст.","label":"ст. Брест-Южный, г. Брест, Брестская обл., Беларусь","label_tail":"г. Брест, Брестская обл., Беларусь","value":"Брест-Южный","gid":"916","lon":52.064722222222,"lat":23.749444444444,"exp":"2101042","ecp":"130837","otd":"003"},{"prefix":"г.","label":"г. Барановичи, Брестская обл., Беларусь","label_tail":"Брестская обл., Беларусь","value":"Барановичи","gid":"48","lon":26.016666666667,"lat":53.133333333333,"exp":"2100005","ecp":"138901","otd":"001"},{"prefix":"г.","label":"г. Берёза, Брестская обл., Беларусь","label_tail":"Брестская обл., Беларусь","value":"Берёза","gid":"910","lon":24.966666666667,"lat":52.55,"exp":"2100003","ecp":"134116","otd":"003"},{"prefix":"г.","label":"г. Бобруйск, Могилёвская обл., Беларусь","label_tail":"Могилёвская обл., Беларусь","value":"Бобруйск","gid":"630","lon":53.148888888889,"lat":29.232777777778,"exp":"2100310","ecp":"147008","otd":"005"},{"prefix":"ст.","label":"ст. Барановичи-Полесские, г. Барановичи, Брестская обл., Беларусь","label_tail":"г. Барановичи, Брестская обл., Беларусь","value":"Барановичи-Полесские","gid":"616","lon":53.128888888889,"lat":26.041944444444,"exp":"2100010","ecp":"138901","otd":"002"},{"prefix":"ст.","label":"ст. Бобруйск, г. Бобруйск, Могилёвская обл., Беларусь","label_tail":"г. Бобруйск, Могилёвская обл., Беларусь","value":"Бобруйск","gid":"630","lon":53.1375,"lat":29.195,"exp":"2100113","ecp":"147008","otd":"005"},{"prefix":"о.п.","label":"о.п. Бабино, Могилёвская обл., Беларусь","label_tail":"Могилёвская обл., Беларусь","value":"Бабино","gid":"514","lon":53.1175,"lat":29.320833333333,"exp":"2100330","ecp":"147718","otd":"005"},{"prefix":"ст.","label":"ст. Бабичи, Гомельская обл., Беларусь","label_tail":"Гомельская обл., Беларусь","value":"Бабичи","gid":"586","lon":52.291111111111,"lat":30.000555555556,"exp":"2100202","ecp":"154425","otd":"004"},{"prefix":"ст.","label":"ст. Баравуха, Витебская обл., Беларусь","label_tail":"Витебская обл., Беларусь","value":"Баравуха","gid":"144","lon":55.584444444444,"lat":28.596111111111,"exp":"2100032","ecp":"162116","otd":"006"},{"prefix":"ст.","label":"ст. Барановичи-Северные, г. Барановичи, Брестская обл., Беларусь","label_tail":"г. Барановичи, Брестская обл., Беларусь","value":"Барановичи-Северные","gid":"49","lon":53.153888888889,"lat":26.015277777778,"exp":"2100241","ecp":"138437","otd":"002"},{"prefix":"ст.","label":"ст. Барановичи-Центральные, г. Барановичи, Брестская обл., Беларусь","label_tail":"г. Барановичи, Брестская обл., Беларусь","value":"Барановичи-Центральные","gid":"48","lon":53.131944444444,"lat":25.993888888889,"exp":"2100020","ecp":"138507","otd":"002"},{"prefix":"о.п.","label":"о.п. Баркалабово, Могилёвская обл., Беларусь","label_tail":"Могилёвская обл., Беларусь","value":"Баркалабово","gid":"368","lon":53.595,"lat":30.238888888889,"exp":"2100266","ecp":"156127","otd":"005"},{"prefix":"о.п.","label":"о.п. Барсуки, Минская обл., Беларусь","label_tail":"Минская обл., Беларусь","value":"Барсуки","gid":"278","lon":54.065555555556,"lat":28.280277777778,"exp":"2101014","ecp":"141336","otd":"001"},{"prefix":"ст.","label":"ст. Барсуки, Могилёвская обл., Беларусь","label_tail":"Могилёвская обл., Беларусь","value":"Барсуки","gid":"366","lon":53.661944444444,"lat":30.260833333333,"exp":"2100267","ecp":"156134","otd":"005"},{"prefix":"ст.","label":"ст. Бастуны, Гродненская обл., Беларусь","label_tail":"Гродненская обл., Беларусь","value":"Бастуны","gid":"240","lon":54.0775,"lat":25.293333333333,"exp":"2100163","ecp":"137805","otd":"002"},{"prefix":"о.п.","label":"о.п. Батали, Витебская обл., Беларусь","label_tail":"Витебская обл., Беларусь","value":"Батали","gid":"696","lon":55.388611111111,"lat":30.083333333333,"exp":"2100872","ecp":"160341","otd":"006"},{"prefix":"о.п.","label":"о.п. Батча, Брестская обл., Беларусь","label_tail":"Брестская обл., Беларусь","value":"Батча","gid":"646","lon":52.217777777778,"lat":24.170277777778,"exp":"2100576","ecp":"131283","otd":"003"},{"prefix":"о.п.","label":"о.п. Безверховичи, Минская обл., Беларусь","label_tail":"Минская обл., Беларусь","value":"Безверховичи","gid":"890","lon":53.028888888889,"lat":27.435277777778,"exp":"2100830","ecp":"148655","otd":"002"},{"prefix":"ст.","label":"ст. Беларусь, г. Заславль, Минская обл., Беларусь","label_tail":"г. Заславль, Минская обл., Беларусь","value":"Беларусь","gid":"47","lon":54.008611111111,"lat":27.283888888889,"exp":"2100106","ecp":"143609","otd":"001"},{"prefix":"о.п.","label":"о.п. Белогруда, Гродненская обл., Беларусь","label_tail":"Гродненская обл., Беларусь","value":"Белогруда","gid":"313","lon":53.786666666667,"lat":25.178333333333,"exp":"2100739","ecp":"137542","otd":"002"},{"prefix":"ст.","label":"ст. Белоозерск, г. Белоозерск, Брестская обл., Беларусь","label_tail":"г. Белоозерск, Брестская обл., Беларусь","value":"Белоозерск","gid":"21","lon":52.466666666667,"lat":25.186944444444,"exp":"2101065","ecp":"133804","otd":"003"},{"prefix":"о.п.","label":"о.п. Белосельский, Гродненская обл., Беларусь","label_tail":"Гродненская обл., Беларусь","value":"Белосельский","gid":"219","lon":54.456666666667,"lat":26.456111111111,"exp":"2100869","ecp":"163316","otd":"001"},{"prefix":"ст.","label":"ст. Белынковичи, Могилёвская обл., Беларусь","label_tail":"Могилёвская обл., Беларусь","value":"Белынковичи","gid":"382","lon":53.233055555556,"lat":32.161388888889,"exp":"2100093","ecp":"159005","otd":"005"},{"prefix":"о.п.","label":"о.п. Бель, Могилёвская обл., Беларусь","label_tail":"Могилёвская обл., Беларусь","value":"Бель","gid":"364","lon":53.802777777778,"lat":31.660277777778,"exp":"2100316","ecp":"158233","otd":"005"},{"prefix":"о.п.","label":"о.п. Бениславского, Витебская обл., Беларусь","label_tail":"Витебская обл., Беларусь","value":"Бениславского","gid":"132","lon":55.714722222222,"lat":28.215,"exp":"2100268","ecp":"161823","otd":"006"},{"prefix":"ст.","label":"ст. Беняконе, Гродненская обл., Беларусь","label_tail":"Гродненская обл., Беларусь","value":"Беняконе","gid":"241","lon":54.244444444444,"lat":25.352777777778,"exp":"2100232","ecp":"137909","otd":"002"},{"prefix":"о.п.","label":"о.п. Бережа, Минская обл., Беларусь","label_tail":"Минская обл., Беларусь","value":"Бережа","gid":"325","lon":53.716111111111,"lat":27.270833333333,"exp":"2101053","ecp":"144527","otd":"001"},{"prefix":"о.п.","label":"о.п. Бережок, Минская обл., Беларусь","label_tail":"Минская обл., Беларусь","value":"Бережок","gid":"290","lon":54.296944444444,"lat":28.931388888889,"exp":"2100456","ecp":"141618","otd":"001"},{"prefix":"о.п.","label":"о.п. Берёза-Город, г. Берёза, Брестская обл., Беларусь","label_tail":"г. Берёза, Брестская обл., Беларусь","value":"Берёза-Город","gid":"910","lon":52.5475,"lat":24.970277777778,"exp":"2100794","ecp":"134116","otd":"003"},{"prefix":"ст.","label":"ст. Берёза-Картузская, г. Береза, Брестская обл., Беларусь","label_tail":"г. Береза, Брестская обл., Беларусь","value":"Берёза-Картузская","gid":"946","lon":52.533333333333,"lat":24.899444444444,"exp":"2100030","ecp":"133700","otd":"003"},{"prefix":"ст.","label":"ст. Березина, г. Бобруйск, Могилёвская обл., Беларусь","label_tail":"г. Бобруйск, Могилёвская обл., Беларусь","value":"Березина","gid":"629","lon":53.130555555556,"lat":29.249444444444,"exp":"2100040","ecp":"147703","otd":"005"},{"prefix":"о.п.","label":"о.п. Березина, г. Борисов, Минская обл., Беларусь","label_tail":"г. Борисов, Минская обл., Беларусь","value":"Березина","gid":"291","lon":54.241111111111,"lat":28.552777777778,"exp":"2100687","ecp":"141410","otd":"001"},{"prefix":"о.п.","label":"о.п. Березинское, Минская обл., Беларусь","label_tail":"Минская обл., Беларусь","value":"Березинское","gid":"262","lon":54.217777777778,"lat":26.614444444444,"exp":"2100726","ecp":"162633","otd":"001"},{"prefix":"ст.","label":"ст. Берёзки, Гомельская обл., Беларусь","label_tail":"Гомельская обл., Беларусь","value":"Берёзки","gid":"580","lon":52.391388888889,"lat":31.100555555556,"exp":"2100571","ecp":"150212","otd":"004"},{"prefix":"о.п.","label":"о.п. Берёзовая роща, Брестская обл., Беларусь","label_tail":"Брестская обл., Беларусь","value":"Берёзовая роща","gid":"123","lon":52.045277777778,"lat":23.775833333333,"exp":"2101044","ecp":"130825","otd":"003"},{"prefix":"о.п.","label":"о.п. Берёзовцы, Гродненская обл., Беларусь","label_tail":"Гродненская обл., Беларусь","value":"Берёзовцы","gid":"245","lon":54.000277777778,"lat":25.713888888889,"exp":"2100736","ecp":"162313","otd":"002"},{"prefix":"ст.","label":"ст. Берестовица, Гродненская обл., Беларусь","label_tail":"Гродненская обл., Беларусь","value":"Берестовица","gid":"24","lon":53.115833333333,"lat":23.968333333333,"exp":"2100155","ecp":"136200","otd":"002"},{"prefix":"о.п.","label":"о.п. Бибковщина, Могилёвская обл., Беларусь","label_tail":"Могилёвская обл., Беларусь","value":"Бибковщина","gid":"512","lon":53.183055555556,"lat":29.035555555556,"exp":"2100577","ecp":"146823","otd":"005"},{"prefix":"ст.","label":"ст. Бигосово, Витебская обл., Беларусь","label_tail":"Витебская обл., Беларусь","value":"Бигосово","gid":"128","lon":55.834444444444,"lat":27.7375,"exp":"2100031","ecp":"161700","otd":"006"},{"prefix":"о.п.","label":"о.п. Бирюличи, Гродненская обл., Беларусь","label_tail":"Гродненская обл., Беларусь","value":"Бирюличи","gid":"350","lon":53.5875,"lat":24.160833333333,"exp":"2100748","ecp":"135349","otd":"002"},{"prefix":"о.п.","label":"о.п. Благовичи, Могилёвская обл., Беларусь","label_tail":"Могилёвская обл., Беларусь","value":"Благовичи","gid":"740","lon":53.794722222222,"lat":30.839444444444,"exp":"2100578","ecp":"157921","otd":"005"},{"prefix":"о.п.","label":"о.п. Блажевщина, Витебская обл., Беларусь","label_tail":"Витебская обл., Беларусь","value":"Блажевщина","gid":"203","lon":54.738888888889,"lat":29.443055555556,"exp":"2100110","ecp":"168339","otd":"001"},{"prefix":"о.п.","label":"о.п. Блужа, Минская обл., Беларусь","label_tail":"Минская обл., Беларусь","value":"Блужа","gid":"443","lon":53.4375,"lat":28.226944444444,"exp":"2100579","ecp":"145426","otd":"001"},{"prefix":"ст.","label":"ст. Бобр, Минская обл., Беларусь","label_tail":"Минская обл., Беларусь","value":"Бобр","gid":"294","lon":54.319722222222,"lat":29.261111111111,"exp":"2100012","ecp":"141800","otd":"001"},{"prefix":"о.п.","label":"о.п. Бобрич, Гомельская обл., Беларусь","label_tail":"Гомельская обл., Беларусь","value":"Бобрич","gid":"677","lon":52.209444444444,"lat":28.430833333333,"exp":"2100650","ecp":"153526","otd":"004"},{"prefix":"о.п.","label":"о.п. Бобры, Брестская обл., Беларусь","label_tail":"Брестская обл., Беларусь","value":"Бобры","gid":"644","lon":52.2175,"lat":24.092777777778,"exp":"2100831","ecp":"131298","otd":"003"},{"prefix":"о.п.","label":"о.п. Бобры, Гродненская обл., Беларусь","label_tail":"Гродненская обл., Беларусь","value":"Бобры","gid":"413","lon":53.531111111111,"lat":24.741944444444,"exp":"2100744","ecp":"137256","otd":"002"},{"prefix":"ст.","label":"ст. Богданов, Минская обл., Беларусь","label_tail":"Минская обл., Беларусь","value":"Богданов","gid":"248","lon":54.171111111111,"lat":26.153888888889,"exp":"2100058","ecp":"162506","otd":"001"},{"prefix":"о.п.","label":"о.п. Богутичи, Гомельская обл., Беларусь","label_tail":"Гомельская обл., Беларусь","value":"Богутичи","gid":"862","lon":51.760833333333,"lat":29.126388888889,"exp":"2100258","ecp":"151234","otd":"004"},{"prefix":"о.п.","label":"о.п. Богушевка, Гродненская обл., Беларусь","label_tail":"Гродненская обл., Беларусь","value":"Богушевка","gid":"107","lon":53.760833333333,"lat":23.960555555556,"exp":"2100547","ecp":"135227","otd":"002"},{"prefix":"ст.","label":"ст. Богушевская, Витебская обл., Беларусь","label_tail":"Витебская обл., Беларусь","value":"Богушевская","gid":"40","lon":54.8425,"lat":30.206944444444,"exp":"2100015","ecp":"167001","otd":"006"},{"prefix":"о.п.","label":"о.п. Бокуны, Гродненская обл., Беларусь","label_tail":"Гродненская обл., Беларусь","value":"Бокуны","gid":"771","lon":53.564166666667,"lat":23.7225,"exp":"2100895","ecp":"135250","otd":"002"},{"prefix":"о.п.","label":"о.п. Больница, г. Жлобин, Гомельская обл., Беларусь","label_tail":"г. Жлобин, Гомельская обл., Беларусь","value":"Больница","gid":"387","lon":52.904722222222,"lat":30.003055555556,"exp":"2100806","ecp":"155856","otd":"004"},{"prefix":"о.п.","label":"о.п. Бони, Могилёвская обл., Беларусь","label_tail":"Могилёвская обл., Беларусь","value":"Бони","gid":"383","lon":53.200555555556,"lat":32.209722222222,"exp":"2100843","ecp":"159043","otd":"005"},{"prefix":"ст.","label":"ст. Борисов, г. Борисов, Минская обл., Беларусь","label_tail":"г. Борисов, Минская обл., Беларусь","value":"Борисов","gid":"289","lon":54.22,"lat":28.530833333333,"exp":"2100305","ecp":"141406","otd":"001"},{"prefix":"о.п.","label":"о.п. Борки, Брестская обл., Беларусь","label_tail":"Брестская обл., Беларусь","value":"Борки","gid":"521","lon":52.778055555556,"lat":25.410277777778,"exp":"2100885","ecp":"134224","otd":"003"},{"prefix":"ст.","label":"ст. Борковичи, Витебская обл., Беларусь","label_tail":"Витебская обл., Беларусь","value":"Борковичи","gid":"131","lon":55.670555555556,"lat":28.324444444444,"exp":"2100233","ecp":"161908","otd":"006"},{"prefix":"о.п.","label":"о.п. Боровая, Брестская обл., Беларусь","label_tail":"Брестская обл., Беларусь","value":"Боровая","gid":"79","lon":51.956388888889,"lat":23.897222222222,"exp":"2101049","ecp":"132534","otd":"003"},{"prefix":"о.п.","label":"о.п. Боровка, г. Могилёв, Могилёвская обл., Беларусь","label_tail":"г. Могилёв, Могилёвская обл., Беларусь","value":"Боровка","gid":"732","lon":53.867222222222,"lat":30.443888888889,"exp":"2100820","ecp":"157739","otd":"005"},{"prefix":"ст.","label":"ст. Боровое, Витебская обл., Беларусь","label_tail":"Витебская обл., Беларусь","value":"Боровое","gid":"182","lon":55.214444444444,"lat":28.079444444444,"exp":"2100247","ecp":"165103","otd":"006"},{"prefix":"ст.","label":"ст. Боровцы, Брестская обл., Беларусь","label_tail":"Брестская обл., Беларусь","value":"Боровцы","gid":"618","lon":53.106666666667,"lat":25.938333333333,"exp":"2100539","ecp":"137129","otd":"002"},{"prefix":"о.п.","label":"о.п. Борок, Гомельская обл., Беларусь","label_tail":"Гомельская обл., Беларусь","value":"Борок","gid":"600","lon":52.273055555556,"lat":31.320833333333,"exp":"2100211","ecp":"150636","otd":"004"},{"prefix":"о.п.","label":"о.п. Борречье, Гомельская обл., Беларусь","label_tail":"Гомельская обл., Беларусь","value":"Борречье","gid":"680","lon":52.190555555556,"lat":28.729444444444,"exp":"2100815","ecp":"153776","otd":"004"},{"prefix":"о.п.","label":"о.п. Бостынь, Брестская обл., Беларусь","label_tail":"Брестская обл., Беларусь","value":"Бостынь","gid":"638","lon":52.393611111111,"lat":26.760833333333,"exp":"2100683","ecp":"139478","otd":"002"},{"prefix":"о.п.","label":"о.п. Бояры, Минская обл., Беларусь","label_tail":"Минская обл., Беларусь","value":"Бояры","gid":"267","lon":54.191388888889,"lat":27.084166666667,"exp":"2100581","ecp":"142324","otd":"001"},{"prefix":"ст.","label":"ст. Бринево, Гомельская обл., Беларусь","label_tail":"Гомельская обл., Беларусь","value":"Бринево","gid":"877","lon":52.250833333333,"lat":27.995,"exp":"2101035","ecp":"153314","otd":"004"},{"prefix":"о.п.","label":"о.п. Брицаловичи, Могилёвская обл., Беларусь","label_tail":"Могилёвская обл., Беларусь","value":"Брицаловичи","gid":"453","lon":53.353055555556,"lat":28.844444444444,"exp":"2100072","ecp":"146429","otd":"005"},{"prefix":"о.п.","label":"о.п. Бродище, Могилёвская обл., Беларусь","label_tail":"Могилёвская обл., Беларусь","value":"Бродище","gid":"511","lon":53.269166666667,"lat":28.775555555556,"exp":"2100329","ecp":"146452","otd":"005"},{"prefix":"ст.","label":"ст. Брожа, Могилёвская обл., Беларусь","label_tail":"Могилёвская обл., Беларусь","value":"Брожа","gid":"926","lon":52.951666666667,"lat":29.112777777778,"exp":"2100121","ecp":"147506","otd":"005"},{"prefix":"о.п.","label":"о.п. Бронислав, Гомельская обл., Беларусь","label_tail":"Гомельская обл., Беларусь","value":"Бронислав","gid":"674","lon":52.227777777778,"lat":27.605555555556,"exp":"2100684","ecp":"152129","otd":"002"},{"prefix":"ст.","label":"ст. Бронная Гора, Брестская обл., Беларусь","label_tail":"Брестская обл., Беларусь","value":"Бронная Гора","gid":"908","lon":52.605833333333,"lat":25.09,"exp":"2100189","ecp":"134008","otd":"003"},{"prefix":"ст.","label":"ст. Брузги, Гродненская обл., Беларусь","label_tail":"Гродненская обл., Беларусь","value":"Брузги","gid":"773","lon":53.555555555556,"lat":23.666388888889,"exp":"2100897","ecp":"135104","otd":"002"},{"prefix":"ст.","label":"ст. Буда-Кошелевская, г. Буда-Кошелёво, Гомельская обл., Беларусь","label_tail":"г. Буда-Кошелёво, Гомельская обл., Беларусь","value":"Буда-Кошелевская","gid":"400","lon":52.712777777778,"lat":30.5675,"exp":"2100025","ecp":"155201","otd":"004"},{"prefix":"о.п.","label":"о.п. Будотень, Гомельская обл., Беларусь","label_tail":"Гомельская обл., Беларусь","value":"Будотень","gid":"576","lon":52.438611111111,"lat":31.0875,"exp":"2100818","ecp":"150551","otd":"004"},{"prefix":"ст.","label":"ст. Будслав, Минская обл., Беларусь","label_tail":"Минская обл., Беларусь","value":"Будслав","gid":"194","lon":54.791111111111,"lat":27.406944444444,"exp":"2100027","ecp":"163802","otd":"001"},{"prefix":"о.п.","label":"о.п. Буды, Брестская обл., Беларусь","label_tail":"Брестская обл., Беларусь","value":"Буды","gid":"525","lon":52.867222222222,"lat":26.3625,"exp":"2100144","ecp":"139618","otd":"002"},{"prefix":"ст.","label":"ст. Буйничи, Могилёвская обл., Беларусь","label_tail":"Могилёвская обл., Беларусь","value":"Буйничи","gid":"743","lon":53.868333333333,"lat":30.248611111111,"exp":"2100269","ecp":"156401","otd":"005"},{"prefix":"о.п.","label":"о.п. Бумажково, Гомельская обл., Беларусь","label_tail":"Гомельская обл., Беларусь","value":"Бумажково","gid":"929","lon":52.705555555556,"lat":28.895833333333,"exp":"2100582","ecp":"147328","otd":"005"},{"prefix":"ст.","label":"ст. Бурбин, Витебская обл., Беларусь","label_tail":"Витебская обл., Беларусь","value":"Бурбин","gid":"213","lon":54.712777777778,"lat":29.65,"exp":"2100669","ecp":"168606","otd":"001"},{"prefix":"о.п.","label":"о.п. Буслы, Гомельская обл., Беларусь","label_tail":"Гомельская обл., Беларусь","value":"Буслы","gid":"407","lon":52.641388888889,"lat":30.721111111111,"exp":"2100583","ecp":"155240","otd":"004"},{"prefix":"о.п.","label":"о.п. Бухличи, Брестская обл., Беларусь","label_tail":"Брестская обл., Беларусь","value":"Бухличи","gid":"101","lon":51.800555555556,"lat":26.781388888889,"exp":"2101314","ecp":"139228","otd":"002"},{"prefix":"о.п.","label":"о.п. Бушевка, Гомельская обл., Беларусь","label_tail":"Гомельская обл., Беларусь","value":"Бушевка","gid":"399","lon":52.690555555556,"lat":30.615555555556,"exp":"2100338","ecp":"155216","otd":"004"},{"prefix":"о.п.","label":"о.п. Бытень, Брестская обл., Беларусь","label_tail":"Брестская обл., Беларусь","value":"Бытень","gid":"522","lon":52.876666666667,"lat":25.617222222222,"exp":"2100584","ecp":"134313","otd":"003"},{"prefix":"ст.","label":"ст. Быхов, Могилёвская обл., Беларусь","label_tail":"Могилёвская обл., Беларусь","value":"Быхов","gid":"370","lon":53.515277777778,"lat":30.230555555556,"exp":"2100060","ecp":"156100","otd":"005"},{"prefix":"ст.","label":"ст. Бычиха, Витебская обл., Беларусь","label_tail":"Витебская обл., Беларусь","value":"Бычиха","gid":"761","lon":55.676388888889,"lat":29.977777777778,"exp":"2100238","ecp":"166210","otd":"006"},{"prefix":"о.п.","label":"о.п. Дедново, г. Бобруйск, Могилёвская обл., Беларусь","label_tail":"г. Бобруйск, Могилёвская обл., Беларусь","value":"Дедново","gid":"924","lon":53.134166666667,"lat":29.172222222222,"exp":"2100911","ecp":"147027","otd":"005"},{"prefix":"о.п.","label":"о.п. Киселевичи, г. Бобруйск, Могилёвская обл., Беларусь","label_tail":"г. Бобруйск, Могилёвская обл., Беларусь","value":"Киселевичи","gid":"513","lon":53.153333333333,"lat":29.161111111111,"exp":"2100049","ecp":"146912","otd":"005"},{"prefix":"о.п.","label":"о.п. Локомотивное депо, г. Барановичи, Брестская обл., Беларусь","label_tail":"г. Барановичи, Брестская обл., Беларусь","value":"Локомотивное депо","gid":"479","lon":53.118888888889,"lat":25.970277777778,"exp":"2100898","ecp":"138973","otd":"002"},{"prefix":"о.п.","label":"о.п. Скоки, г. Брест, Брестская обл., Беларусь","label_tail":"г. Брест, Брестская обл., Беларусь","value":"Скоки","gid":"622","lon":52.136388888889,"lat":23.6275,"exp":"2100708","ecp":"132252","otd":"003"},{"prefix":"о.п.","label":"о.п. Юго-Запад, г. Брест, Брестская обл., Беларусь","label_tail":"г. Брест, Брестская обл., Беларусь","value":"Юго-Запад","gid":"915","lon":52.073888888889,"lat":23.734722222222,"exp":"2100421","ecp":"130312","otd":"003"},{"prefix":"г.","label":"г. Баку, Азербайджан","label_tail":"Азербайджан","value":"Баку","gid":"0","lon":0,"lat":0,"exp":"5700001","ecp":"0","otd":null},{"prefix":"г.","label":"г. Берлин, Германия","label_tail":"Германия","value":"Берлин","gid":"0","lon":0,"lat":0,"exp":"8000101","ecp":"0","otd":null},{"prefix":"ст.","label":"ст. Бишкек, Кыргизия","label_tail":"Кыргизия","value":"Бишкек","gid":"0","lon":74.606944444444,"lat":42.876666666667,"exp":"5900001","ecp":"0","otd":null},{"prefix":"ст.","label":"ст. Брянск, Россия","label_tail":"Россия","value":"Брянск","gid":"0","lon":34.371666666667,"lat":53.252222222222,"exp":"2000427","ecp":"0","otd":null},{"prefix":"ст.","label":"ст. Бухарест, Румыния","label_tail":"Румыния","value":"Бухарест","gid":"0","lon":26.103888888889,"lat":44.4325,"exp":"5399100","ecp":"0","otd":null},{"prefix":"ст.","label":"ст. Баку-Пасс, Азербайджан","label_tail":"Азербайджан","value":"Баку-Пасс","gid":"0","lon":0,"lat":0,"exp":"5700000","ecp":"0","otd":null},{"prefix":"ст.","label":"ст. Берлин Главный, Германия","label_tail":"Германия","value":"Берлин Главный","gid":"0","lon":13.369444444444,"lat":52.525,"exp":"8010100","ecp":"0","otd":null},{"prefix":"ст.","label":"ст. Бишкек 1, Кыргизия","label_tail":"Кыргизия","value":"Бишкек 1","gid":"0","lon":74.551666666667,"lat":42.866388888889,"exp":"5900898","ecp":"0","otd":null},{"prefix":"ст.","label":"ст. Бабадурмаз, Туркмения","label_tail":"Туркмения","value":"Бабадурмаз","gid":"0","lon":0,"lat":0,"exp":"6700273","ecp":"0","otd":null},{"prefix":"ст.","label":"ст. Бабаево, Россия","label_tail":"Россия","value":"Бабаево","gid":"0","lon":35.948888888889,"lat":59.385833333333,"exp":"2004710","ecp":"0","otd":null},{"prefix":"ст.","label":"ст. Бабаковка, Украина","label_tail":"Украина","value":"Бабаковка","gid":"0","lon":34.139722222222,"lat":51.182222222222,"exp":"2201189","ecp":"0","otd":null},{"prefix":"ст.","label":"ст. Бабанаково, Россия","label_tail":"Россия","value":"Бабанаково","gid":"0","lon":86.327222222222,"lat":54.387777777778,"exp":"2028992","ecp":"0","otd":null},{"prefix":"ст.","label":"ст. Бабариковская, Украина","label_tail":"Украина","value":"Бабариковская","gid":"0","lon":0,"lat":0,"exp":"2205642","ecp":"0","otd":null},{"prefix":"ст.","label":"ст. Бабарыкино, Россия","label_tail":"Россия","value":"Бабарыкино","gid":"0","lon":38.239444444444,"lat":52.948888888889,"exp":"2015363","ecp":"0","otd":null},{"prefix":"ст.","label":"ст. Бабатай, Казахстан","label_tail":"Казахстан","value":"Бабатай","gid":"0","lon":71.955277777778,"lat":50.973611111111,"exp":"2708899","ecp":"0","otd":null},{"prefix":"ст.","label":"ст. Бабаюрт, Россия","label_tail":"Россия","value":"Бабаюрт","gid":"0","lon":0,"lat":0,"exp":"2064111","ecp":"0","otd":null},{"prefix":"ст.","label":"ст. Бабаяров, Узбекистан","label_tail":"Узбекистан","value":"Бабаяров","gid":"0","lon":0,"lat":0,"exp":"2900234","ecp":"0","otd":null},{"prefix":"ст.","label":"ст. Бабенково, Украина","label_tail":"Украина","value":"Бабенково","gid":"0","lon":35.125277777778,"lat":45.095277777778,"exp":"2204688","ecp":"0","otd":null},{"prefix":"ст.","label":"ст. Бабики, Россия","label_tail":"Россия","value":"Бабики","gid":"0","lon":54.224444444444,"lat":57.958611111111,"exp":"2031216","ecp":"0","otd":null},{"prefix":"ст.","label":"ст. Бабино, Россия","label_tail":"Россия","value":"Бабино","gid":"0","lon":31.459444444444,"lat":59.240555555556,"exp":"2004143","ecp":"0","otd":null},{"prefix":"ст.","label":"ст. Бабино 2, Россия","label_tail":"Россия","value":"Бабино 2","gid":"0","lon":0,"lat":0,"exp":"2005937","ecp":"0","otd":null},{"prefix":"ст.","label":"ст. Бабите, Латвия\n","label_tail":"Латвия\n","value":"Бабите","gid":"0","lon":23.948888888889,"lat":56.956111111111,"exp":"2500685","ecp":"0","otd":null},{"prefix":"ст.","label":"ст. Бабичевский, Украина","label_tail":"Украина","value":"Бабичевский","gid":"0","lon":0,"lat":0,"exp":"2200703","ecp":"0","otd":null},{"prefix":"ст.","label":"ст. Бабстово, Россия","label_tail":"Россия","value":"Бабстово","gid":"0","lon":132.43027777778,"lat":48.124166666667,"exp":"2034599","ecp":"0","otd":null},{"prefix":"ст.","label":"ст. Бабурино, Россия","label_tail":"Россия","value":"Бабурино","gid":"0","lon":0,"lat":0,"exp":"2000752","ecp":"0","otd":null},{"prefix":"ст.","label":"ст. Бабушкино, Россия","label_tail":"Россия","value":"Бабушкино","gid":"0","lon":43.418611111111,"lat":56.222222222222,"exp":"2030203","ecp":"0","otd":null},{"prefix":"ст.","label":"ст. Бабынино, Россия","label_tail":"Россия","value":"Бабынино","gid":"0","lon":35.738888888889,"lat":54.387777777778,"exp":"2000348","ecp":"0","otd":null},{"prefix":"ст.","label":"ст. Бавлены, Россия","label_tail":"Россия","value":"Бавлены","gid":"0","lon":39.559166666667,"lat":56.397222222222,"exp":"2010316","ecp":"0","otd":null},{"prefix":"ст.","label":"ст. Багаевка, Россия","label_tail":"Россия","value":"Багаевка","gid":"0","lon":45.844722222222,"lat":51.448888888889,"exp":"2020798","ecp":"0","otd":null},{"prefix":"ст.","label":"ст. Баган, Россия","label_tail":"Россия","value":"Баган","gid":"0","lon":77.654722222222,"lat":54.095555555556,"exp":"2044725","ecp":"0","otd":null},{"prefix":"ст.","label":"ст. Багануур, Монголия","label_tail":"Монголия","value":"Багануур","gid":"0","lon":0,"lat":0,"exp":"3100030","ecp":"0","otd":null},{"prefix":"ст.","label":"ст. Багат, Узбекистан","label_tail":"Узбекистан","value":"Багат","gid":"0","lon":0,"lat":0,"exp":"2900738","ecp":"0","otd":null},{"prefix":"ст.","label":"ст. Багерово, Украина","label_tail":"Украина","value":"Багерово","gid":"0","lon":36.292777777778,"lat":45.372222222222,"exp":"2210737","ecp":"0","otd":null},{"prefix":"ст.","label":"ст. Багиш, Кыргизия","label_tail":"Кыргизия","value":"Багиш","gid":"0","lon":0,"lat":0,"exp":"5900245","ecp":"0","otd":null},{"prefix":"ст.","label":"ст. Баглаи, Украина","label_tail":"Украина","value":"Баглаи","gid":"0","lon":26.576944444444,"lat":49.498611111111,"exp":"2200365","ecp":"0","otd":null},{"prefix":"ст.","label":"ст. Баглей, Украина","label_tail":"Украина","value":"Баглей","gid":"0","lon":0,"lat":0,"exp":"2210768","ecp":"0","otd":null},{"prefix":"ст.","label":"ст. Баготойи, Литва","label_tail":"Литва","value":"Баготойи","gid":"0","lon":0,"lat":0,"exp":"2400359","ecp":"0","otd":null},{"prefix":"ст.","label":"ст. Баграван, Армения","label_tail":"Армения","value":"Баграван","gid":"0","lon":0,"lat":0,"exp":"5800714","ecp":"0","otd":null},{"prefix":"ст.","label":"ст. Багратионовск, Россия","label_tail":"Россия","value":"Багратионовск","gid":"0","lon":20.648055555556,"lat":54.392777777778,"exp":"2058905","ecp":"0","otd":null},{"prefix":"ст.","label":"ст. Багримово, Россия","label_tail":"Россия","value":"Багримово","gid":"0","lon":38.911388888889,"lat":56.5575,"exp":"2010803","ecp":"0","otd":null},{"prefix":"ст.","label":"ст. Багул, Россия","label_tail":"Россия","value":"Багул","gid":"0","lon":58.213333333333,"lat":58.394166666667,"exp":"2030497","ecp":"0","otd":null},{"prefix":"ст.","label":"ст. Багульная, Россия","label_tail":"Россия","value":"Багульная","gid":"0","lon":0,"lat":0,"exp":"2054350","ecp":"0","otd":null},{"prefix":"ст.","label":"ст. Багульная 2, Россия","label_tail":"Россия","value":"Багульная 2","gid":"0","lon":0,"lat":0,"exp":"2054241","ecp":"0","otd":null},{"prefix":"ст.","label":"ст. Багульная 3, Россия","label_tail":"Россия","value":"Багульная 3","gid":"0","lon":0,"lat":0,"exp":"2054242","ecp":"0","otd":null},{"prefix":"ст.","label":"ст. Бад Айблинг, Германия","label_tail":"Германия","value":"Бад Айблинг","gid":"0","lon":0,"lat":0,"exp":"8083967","ecp":"0","otd":null},{"prefix":"ст.","label":"ст. Бад Бентхайм, Германия","label_tail":"Германия","value":"Бад Бентхайм","gid":"0","lon":0,"lat":0,"exp":"8048171","ecp":"0","otd":null},{"prefix":"ст.","label":"ст. Бад Бергзаберн, Германия","label_tail":"Германия","value":"Бад Бергзаберн","gid":"0","lon":0,"lat":0,"exp":"8011007","ecp":"0","otd":null},{"prefix":"ст.","label":"ст. Бад Брамбах, Германия","label_tail":"Германия","value":"Бад Брамбах","gid":"0","lon":0,"lat":0,"exp":"8008366","ecp":"0","otd":null},{"prefix":"ст.","label":"ст. Бад Гришбах, Германия","label_tail":"Германия","value":"Бад Гришбах","gid":"0","lon":0,"lat":0,"exp":"8011009","ecp":"0","otd":null},{"prefix":"ст.","label":"ст. Бад Кисинген, Германия","label_tail":"Германия","value":"Бад Кисинген","gid":"0","lon":0,"lat":0,"exp":"8097145","ecp":"0","otd":null},{"prefix":"ст.","label":"ст. Бад Клейнен, Германия","label_tail":"Германия","value":"Бад Клейнен","gid":"0","lon":0,"lat":0,"exp":"8023805","ecp":"0","otd":null},{"prefix":"ст.","label":"ст. Бад Креузнах, Германия","label_tail":"Германия","value":"Бад Креузнах","gid":"0","lon":0,"lat":0,"exp":"8000005","ecp":"0","otd":null},{"prefix":"ст.","label":"ст. Бад Лангенсалза, Германия","label_tail":"Германия","value":"Бад Лангенсалза","gid":"0","lon":0,"lat":0,"exp":"8011010","ecp":"0","otd":null},{"prefix":"ст.","label":"ст. Бад Ненндорф, Германия","label_tail":"Германия","value":"Бад Ненндорф","gid":"0","lon":0,"lat":0,"exp":"8011011","ecp":"0","otd":null},{"prefix":"ст.","label":"ст. Бад Олдеслое, Германия","label_tail":"Германия","value":"Бад Олдеслое","gid":"0","lon":0,"lat":0,"exp":"8023970","ecp":"0","otd":null},{"prefix":"ст.","label":"ст. Бад Рагаз, Швейцария","label_tail":"Швейцария","value":"Бад Рагаз","gid":"0","lon":0,"lat":0,"exp":"8500053","ecp":"0","otd":null},{"prefix":"ст.","label":"ст. Бад Фридришх, Германия","label_tail":"Германия","value":"Бад Фридришх","gid":"0","lon":0,"lat":0,"exp":"8011008","ecp":"0","otd":null},{"prefix":"ст.","label":"ст. Бад Харзбург, Германия","label_tail":"Германия","value":"Бад Харзбург","gid":"0","lon":0,"lat":0,"exp":"8038142","ecp":"0","otd":null},{"prefix":"ст.","label":"ст. Бад Херсфельд, Германия","label_tail":"Германия","value":"Бад Херсфельд","gid":"0","lon":0,"lat":0,"exp":"8036143","ecp":"0","otd":null},{"prefix":"ст.","label":"ст. Бад Шандау, Германия","label_tail":"Германия","value":"Бад Шандау","gid":"0","lon":0,"lat":0,"exp":"8001311","ecp":"0","otd":null},{"prefix":"ст.","label":"ст. Бада, Россия","label_tail":"Россия","value":"Бада","gid":"0","lon":109.84805555556,"lat":51.385555555556,"exp":"2050498","ecp":"0","otd":null},{"prefix":"ст.","label":"ст. Бадаложный, Россия","label_tail":"Россия","value":"Бадаложный","gid":"0","lon":91.869444444444,"lat":56.078333333333,"exp":"2038017","ecp":"0","otd":null},{"prefix":"ст.","label":"ст. Бадам, Казахстан","label_tail":"Казахстан","value":"Бадам","gid":"0","lon":69.252222222222,"lat":42.381388888889,"exp":"2700875","ecp":"0","otd":null},{"prefix":"ст.","label":"ст. Баден-Баден, Германия","label_tail":"Германия","value":"Баден-Баден","gid":"0","lon":0,"lat":0,"exp":"8076139","ecp":"0","otd":null},{"prefix":"ст.","label":"ст. Баденхаузен Хесс, Германия","label_tail":"Германия","value":"Баденхаузен Хесс","gid":"0","lon":0,"lat":0,"exp":"8011130","ecp":"0","otd":null},{"prefix":"ст.","label":"ст. Бадиаури, Грузия","label_tail":"Грузия","value":"Бадиаури","gid":"0","lon":0,"lat":0,"exp":"2800471","ecp":"0","otd":null},{"prefix":"ст.","label":"ст. Бадовка, Украина","label_tail":"Украина","value":"Бадовка","gid":"0","lon":26.604166666667,"lat":50.384722222222,"exp":"2201238","ecp":"0","otd":null},{"prefix":"ст.","label":"ст. Бадряш, Россия","label_tail":"Россия","value":"Бадряш","gid":"0","lon":54.725,"lat":56.254166666667,"exp":"2060735","ecp":"0","otd":null},{"prefix":"ст.","label":"ст. Баевка, Россия","label_tail":"Россия","value":"Баевка","gid":"0","lon":20.7625,"lat":54.809722222222,"exp":"2058946","ecp":"0","otd":null},{"prefix":"ст.","label":"ст. Баевка 2, Россия","label_tail":"Россия","value":"Баевка 2","gid":"0","lon":20.795,"lat":54.813055555556,"exp":"2058011","ecp":"0","otd":null},{"prefix":"ст.","label":"ст. Баженово, Россия","label_tail":"Россия","value":"Баженово","gid":"0","lon":61.371944444444,"lat":56.730555555556,"exp":"2030234","ecp":"0","otd":null},{"prefix":"ст.","label":"ст. Бажуково, Россия","label_tail":"Россия","value":"Бажуково","gid":"0","lon":59.228611111111,"lat":56.524444444444,"exp":"2030481","ecp":"0","otd":null},{"prefix":"ст.","label":"ст. База, Украина","label_tail":"Украина","value":"База","gid":"0","lon":0,"lat":0,"exp":"2204752","ecp":"0","otd":null},{"prefix":"ст.","label":"ст. База Мк, Россия","label_tail":"Россия","value":"База Мк","gid":"0","lon":0,"lat":0,"exp":"2038392","ecp":"0","otd":null},{"prefix":"ст.","label":"ст. База Пмс, Россия","label_tail":"Россия","value":"База Пмс","gid":"0","lon":0,"lat":0,"exp":"2038404","ecp":"0","otd":null},{"prefix":"ст.","label":"ст. База Пмс, Россия","label_tail":"Россия","value":"База Пмс","gid":"0","lon":0,"lat":0,"exp":"2054978","ecp":"0","otd":null},{"prefix":"ст.","label":"ст. База Пмс, Россия","label_tail":"Россия","value":"База Пмс","gid":"0","lon":0,"lat":0,"exp":"2030377","ecp":"0","otd":null},{"prefix":"ст.","label":"ст. База Пмс-113, Россия","label_tail":"Россия","value":"База Пмс-113","gid":"0","lon":0,"lat":0,"exp":"2011306","ecp":"0","otd":null},{"prefix":"ст.","label":"ст. Базаиха, Россия","label_tail":"Россия","value":"Базаиха","gid":"0","lon":93.065277777778,"lat":56.022222222222,"exp":"2038005","ecp":"0","otd":null},{"prefix":"ст.","label":"ст. Базалети, Грузия","label_tail":"Грузия","value":"Базалети","gid":"0","lon":0,"lat":0,"exp":"2800786","ecp":"0","otd":null},{"prefix":"ст.","label":"ст. Базарная, Россия","label_tail":"Россия","value":"Базарная","gid":"0","lon":0,"lat":0,"exp":"2024523","ecp":"0","otd":null},{"prefix":"ст.","label":"ст. Базаровка, Россия","label_tail":"Россия","value":"Базаровка","gid":"0","lon":52.721388888889,"lat":54.480833333333,"exp":"2024716","ecp":"0","otd":null},{"prefix":"ст.","label":"ст. Базево, Россия","label_tail":"Россия","value":"Базево","gid":"0","lon":0,"lat":0,"exp":"2024879","ecp":"0","otd":null},{"prefix":"ст.","label":"ст. Базель Бад, Германия","label_tail":"Германия","value":"Базель Бад","gid":"0","lon":0,"lat":0,"exp":"8079165","ecp":"0","otd":null},{"prefix":"ст.","label":"ст. Базель Сбб, Швейцария","label_tail":"Швейцария","value":"Базель Сбб","gid":"0","lon":0,"lat":0,"exp":"8500010","ecp":"0","otd":null},{"prefix":"ст.","label":"ст. Базыр, Россия","label_tail":"Россия","value":"Базыр","gid":"0","lon":88.998333333333,"lat":55.422777777778,"exp":"2038189","ecp":"0","otd":null},{"prefix":"ст.","label":"ст. Базырово, Казахстан","label_tail":"Казахстан","value":"Базырово","gid":"0","lon":0,"lat":0,"exp":"2704979","ecp":"0","otd":null},{"prefix":"ст.","label":"ст. Баин-Тумэн, Монголия","label_tail":"Монголия","value":"Баин-Тумэн","gid":"0","lon":0,"lat":0,"exp":"3100007","ecp":"0","otd":null},{"prefix":"ст.","label":"ст. Бай-Хожа, Казахстан","label_tail":"Казахстан","value":"Бай-Хожа","gid":"0","lon":0,"lat":0,"exp":"2704904","ecp":"0","otd":null},{"prefix":"ст.","label":"ст. Байгакум, Казахстан","label_tail":"Казахстан","value":"Байгакум","gid":"0","lon":66.4625,"lat":44.313888888889,"exp":"2704933","ecp":"0","otd":null},{"prefix":"ст.","label":"ст. Байгора, Россия","label_tail":"Россия","value":"Байгора","gid":"0","lon":40.106111111111,"lat":52.41,"exp":"2014448","ecp":"0","otd":null},{"prefix":"ст.","label":"ст. Байдары, Россия","label_tail":"Россия","value":"Байдары","gid":"0","lon":0,"lat":0,"exp":"2042603","ecp":"0","otd":null},{"prefix":"ст.","label":"ст. Байдеряково, Россия","label_tail":"Россия","value":"Байдеряково","gid":"0","lon":48.541111111111,"lat":53.453333333333,"exp":"2024812","ecp":"0","otd":null},{"prefix":"ст.","label":"ст. Байдики, Россия","label_tail":"Россия","value":"Байдики","gid":"0","lon":37.66,"lat":54.324166666667,"exp":"2001262","ecp":"0","otd":null},{"prefix":"ст.","label":"ст. Байдук, Россия","label_tail":"Россия","value":"Байдук","gid":"0","lon":0,"lat":0,"exp":"2011193","ecp":"0","otd":null},{"prefix":"ст.","label":"ст. Байка, Россия","label_tail":"Россия","value":"Байка","gid":"0","lon":44.031388888889,"lat":52.325,"exp":"2014713","ecp":"0","otd":null},{"prefix":"ст.","label":"ст. Байкаим, Россия","label_tail":"Россия","value":"Байкаим","gid":"0","lon":86.167222222222,"lat":54.640277777778,"exp":"2028082","ecp":"0","otd":null},{"prefix":"ст.","label":"ст. Байкал, Россия","label_tail":"Россия","value":"Байкал","gid":"0","lon":104.80888888889,"lat":51.870277777778,"exp":"2054658","ecp":"0","otd":null},{"prefix":"ст.","label":"ст. Байкальск, Россия","label_tail":"Россия","value":"Байкальск","gid":"0","lon":103.89861111111,"lat":52.528333333333,"exp":"2054546","ecp":"0","otd":null},{"prefix":"ст.","label":"ст. Байкальск Пасс, Россия","label_tail":"Россия","value":"Байкальск Пасс","gid":"0","lon":0,"lat":0,"exp":"2054270","ecp":"0","otd":null},{"prefix":"ст.","label":"ст. Байкальский Прибой, Россия","label_tail":"Россия","value":"Байкальский Прибой","gid":"0","lon":0,"lat":0,"exp":"2054947","ecp":"0","otd":null},{"prefix":"ст.","label":"ст. Байково, Россия","label_tail":"Россия","value":"Байково","gid":"0","lon":0,"lat":0,"exp":"2068519","ecp":"0","otd":null},{"prefix":"ст.","label":"ст. Байле Геркулане, Румыния","label_tail":"Румыния","value":"Байле Геркулане","gid":"0","lon":0,"lat":0,"exp":"5311308","ecp":"0","otd":null},{"prefix":"ст.","label":"ст. Байле Туснад, Румыния","label_tail":"Румыния","value":"Байле Туснад","gid":"0","lon":0,"lat":0,"exp":"5340256","ecp":"0","otd":null},{"prefix":"ст.","label":"ст. Байорай, Литва","label_tail":"Литва","value":"Байорай","gid":"0","lon":0,"lat":0,"exp":"2400015","ecp":"0","otd":null},{"prefix":"ст.","label":"ст. Байрак, Украина","label_tail":"Украина","value":"Байрак","gid":"0","lon":33.121666666667,"lat":49.675,"exp":"2214078","ecp":"0","otd":null},{"prefix":"ст.","label":"ст. Байрам, Россия","label_tail":"Россия","value":"Байрам","gid":"0","lon":0,"lat":0,"exp":"2064542","ecp":"0","otd":null},{"prefix":"ст.","label":"ст. Байрамалы, Туркмения","label_tail":"Туркмения","value":"Байрамалы","gid":"0","lon":0,"lat":0,"exp":"6700670","ecp":"0","otd":null},{"prefix":"ст.","label":"ст. Байрец, Германия","label_tail":"Германия","value":"Байрец","gid":"0","lon":0,"lat":0,"exp":"8095168","ecp":"0","otd":null},{"prefix":"ст.","label":"ст. Байрих Гмайн, Германия","label_tail":"Германия","value":"Байрих Гмайн","gid":"0","lon":0,"lat":0,"exp":"8083167","ecp":"0","otd":null},{"prefix":"ст.","label":"ст. Байроновка, Россия","label_tail":"Россия","value":"Байроновка","gid":"0","lon":98.186944444444,"lat":55.792222222222,"exp":"2054301","ecp":"0","otd":null},{"prefix":"ст.","label":"ст. Байрякино, Россия","label_tail":"Россия","value":"Байрякино","gid":"0","lon":53.126111111111,"lat":54.668333333333,"exp":"2024719","ecp":"0","otd":null},{"prefix":"ст.","label":"ст. Байсерке, Казахстан","label_tail":"Казахстан","value":"Байсерке","gid":"0","lon":0,"lat":0,"exp":"2700807","ecp":"0","otd":null},{"prefix":"ст.","label":"ст. Байсеукс, Франция","label_tail":"Франция","value":"Байсеукс","gid":"0","lon":0,"lat":0,"exp":"8700220","ecp":"0","otd":null},{"prefix":"ст.","label":"ст. Байсогала, Литва","label_tail":"Литва","value":"Байсогала","gid":"0","lon":0,"lat":0,"exp":"2400411","ecp":"0","otd":null},{"prefix":"ст.","label":"ст. Байтерек, Казахстан","label_tail":"Казахстан","value":"Байтерек","gid":"0","lon":77.221111111111,"lat":43.402777777778,"exp":"2705788","ecp":"0","otd":null},{"prefix":"ст.","label":"ст. Байтук, Россия","label_tail":"Россия","value":"Байтук","gid":"0","lon":60.030555555556,"lat":52.082222222222,"exp":"2040384","ecp":"0","otd":null},{"prefix":"ст.","label":"ст. Байчурово, Россия","label_tail":"Россия","value":"Байчурово","gid":"0","lon":0,"lat":0,"exp":"2014728","ecp":"0","otd":null},{"prefix":"ст.","label":"ст. Байшешек, Казахстан","label_tail":"Казахстан","value":"Байшешек","gid":"0","lon":0,"lat":0,"exp":"2700908","ecp":"0","otd":null},{"prefix":"ст.","label":"ст. Байя, Венгрия","label_tail":"Венгрия","value":"Байя","gid":"0","lon":0,"lat":0,"exp":"5501670","ecp":"0","otd":null},{"prefix":"ст.","label":"ст. Бакай, Казахстан","label_tail":"Казахстан","value":"Бакай","gid":"0","lon":58.058333333333,"lat":50.103611111111,"exp":"2704883","ecp":"0","otd":null},{"prefix":"ст.","label":"ст. Бакал, Россия","label_tail":"Россия","value":"Бакал","gid":"0","lon":58.808888888889,"lat":54.938888888889,"exp":"2040442","ecp":"0","otd":null},{"prefix":"ст.","label":"ст. Баканская, Россия","label_tail":"Россия","value":"Баканская","gid":"0","lon":37.861388888889,"lat":44.869444444444,"exp":"2064179","ecp":"0","otd":null},{"prefix":"ст.","label":"ст. Баканы, Россия","label_tail":"Россия","value":"Баканы","gid":"0","lon":111.99611111111,"lat":56.161111111111,"exp":"2054121","ecp":"0","otd":null},{"prefix":"ст.","label":"ст. Бакарица, Россия","label_tail":"Россия","value":"Бакарица","gid":"0","lon":40.606944444444,"lat":64.470555555556,"exp":"2011173","ecp":"0","otd":null},{"prefix":"ст.","label":"ст. Бакач, Россия","label_tail":"Россия","value":"Бакач","gid":"0","lon":29.939722222222,"lat":57.639444444444,"exp":"2004528","ecp":"0","otd":null},{"prefix":"ст.","label":"ст. Бакинская, Россия","label_tail":"Россия","value":"Бакинская","gid":"0","lon":44.528888888889,"lat":48.726944444444,"exp":"2020658","ecp":"0","otd":null},{"prefix":"ст.","label":"ст. Бакировка, Украина","label_tail":"Украина","value":"Бакировка","gid":"0","lon":35.018611111111,"lat":50.371388888889,"exp":"2204509","ecp":"0","otd":null},{"prefix":"ст.","label":"ст. Бакиханов, Азербайджан","label_tail":"Азербайджан","value":"Бакиханов","gid":"0","lon":0,"lat":0,"exp":"5700910","ecp":"0","otd":null},{"prefix":"ст.","label":"ст. Бакланка, Россия","label_tail":"Россия","value":"Бакланка","gid":"0","lon":40.126111111111,"lat":58.7175,"exp":"2010187","ecp":"0","otd":null},{"prefix":"ст.","label":"ст. Бакланово, Украина","label_tail":"Украина","value":"Бакланово","gid":"0","lon":32.050277777778,"lat":51.055555555556,"exp":"2200697","ecp":"0","otd":null},{"prefix":"ст.","label":"ст. Баков Над Йизероу, Чехия","label_tail":"Чехия","value":"Баков Над Йизероу","gid":"0","lon":0,"lat":0,"exp":"5454361","ecp":"0","otd":null},{"prefix":"ст.","label":"ст. Баковка, Россия","label_tail":"Россия","value":"Баковка","gid":"0","lon":37.314722222222,"lat":55.6825,"exp":"2000685","ecp":"0","otd":null},{"prefix":"ст.","label":"ст. Баксай, Казахстан","label_tail":"Казахстан","value":"Баксай","gid":"0","lon":0,"lat":0,"exp":"2704996","ecp":"0","otd":null},{"prefix":"ст.","label":"ст. Баксан, Россия","label_tail":"Россия","value":"Баксан","gid":"0","lon":0,"lat":0,"exp":"2065325","ecp":"0","otd":null},{"prefix":"ст.","label":"ст. Баксары, Россия","label_tail":"Россия","value":"Баксары","gid":"0","lon":0,"lat":0,"exp":"2042696","ecp":"0","otd":null},{"prefix":"ст.","label":"ст. Бактрия, Узбекистан","label_tail":"Узбекистан","value":"Бактрия","gid":"0","lon":0,"lat":0,"exp":"2900248","ecp":"0","otd":null},{"prefix":"ст.","label":"ст. Бактысай, Казахстан","label_tail":"Казахстан","value":"Бактысай","gid":"0","lon":0,"lat":0,"exp":"2705830","ecp":"0","otd":null},{"prefix":"ст.","label":"ст. Бакунино, Россия","label_tail":"Россия","value":"Бакунино","gid":"0","lon":34.484166666667,"lat":57.004722222222,"exp":"2004028","ecp":"0","otd":null},{"prefix":"ст.","label":"ст. Бакуриани, Грузия","label_tail":"Грузия","value":"Бакуриани","gid":"0","lon":0,"lat":0,"exp":"2800436","ecp":"0","otd":null},{"prefix":"ст.","label":"ст. Бакурцихе, Грузия","label_tail":"Грузия","value":"Бакурцихе","gid":"0","lon":0,"lat":0,"exp":"2800787","ecp":"0","otd":null},{"prefix":"ст.","label":"ст. Бакшеевка, Украина","label_tail":"Украина","value":"Бакшеевка","gid":"0","lon":37.211388888889,"lat":50.204444444444,"exp":"2204394","ecp":"0","otd":null},{"prefix":"ст.","label":"ст. Бакэу, Румыния","label_tail":"Румыния","value":"Бакэу","gid":"0","lon":26.916666666667,"lat":46.583333333333,"exp":"5351059","ecp":"0","otd":null},{"prefix":"ст.","label":"ст. Балабаново, Россия","label_tail":"Россия","value":"Балабаново","gid":"0","lon":36.6625,"lat":55.178888888889,"exp":"2000695","ecp":"0","otd":null},{"prefix":"ст.","label":"ст. Балабино, Украина","label_tail":"Украина","value":"Балабино","gid":"0","lon":35.216944444444,"lat":47.747222222222,"exp":"2210240","ecp":"0","otd":null},{"prefix":"ст.","label":"ст. Балага, Россия","label_tail":"Россия","value":"Балага","gid":"0","lon":0,"lat":0,"exp":"2054850","ecp":"0","otd":null},{"prefix":"ст.","label":"ст. Балагачево, Россия","label_tail":"Россия","value":"Балагачево","gid":"0","lon":86.044444444444,"lat":57.419722222222,"exp":"2029002","ecp":"0","otd":null},{"prefix":"ст.","label":"ст. Баладжары, Азербайджан","label_tail":"Азербайджан","value":"Баладжары","gid":"0","lon":0,"lat":0,"exp":"5700714","ecp":"0","otd":null},{"prefix":"ст.","label":"ст. Балаир, Россия","label_tail":"Россия","value":"Балаир","gid":"0","lon":64.166666666667,"lat":57.077777777778,"exp":"2031439","ecp":"0","otd":null},{"prefix":"ст.","label":"ст. Балай, Россия","label_tail":"Россия","value":"Балай","gid":"0","lon":93.987777777778,"lat":55.868333333333,"exp":"2038209","ecp":"0","otd":null},{"prefix":"ст.","label":"ст. Балакирево, Россия","label_tail":"Россия","value":"Балакирево","gid":"0","lon":0,"lat":0,"exp":"2010235","ecp":"0","otd":null},{"prefix":"ст.","label":"ст. Балаклея, Украина","label_tail":"Украина","value":"Балаклея","gid":"0","lon":31.728055555556,"lat":49.229444444444,"exp":"2204467","ecp":"0","otd":null},{"prefix":"ст.","label":"ст. Балаково, Россия","label_tail":"Россия","value":"Балаково","gid":"0","lon":47.788333333333,"lat":52.0025,"exp":"2020865","ecp":"0","otd":null},{"prefix":"ст.","label":"ст. Балакты-Коль, Казахстан","label_tail":"Казахстан","value":"Балакты-Коль","gid":"0","lon":0,"lat":0,"exp":"2700727","ecp":"0","otd":null},{"prefix":"ст.","label":"ст. Баландаево, Россия","label_tail":"Россия","value":"Баландаево","gid":"0","lon":51.573333333333,"lat":54.455277777778,"exp":"2024696","ecp":"0","otd":null},{"prefix":"ст.","label":"ст. Баландино, Россия","label_tail":"Россия","value":"Баландино","gid":"0","lon":61.548888888889,"lat":55.297777777778,"exp":"2040471","ecp":"0","otd":null},